[{"results":[{"address_components":[{"long_name":"Nantes","short_name":"Nantes","types":["locality","political"]},{"long_name":"Loire-Atlantique","short_name":"44","types":["administrative_area_level_2","political"]},{"long_name":"Pays de la Loire","short_name":"Pays de la Loire","types":["administrative_area_level_1","political"]},{"long_name":"France","short_name":"FR","types":["country","political"]}],"formatted_address":"Nantes, France","geometry":{"bounds":{"northeast":{"lat":47.29582689999999,"lng":-1.4802542},"southwest":{"lat":47.1806171,"lng":-1.6416767}},"location":{"lat":47.218371,"lng":-1.553621},"location_type":"APPROXIMATE","viewport":{"northeast":{"lat":47.29582689999999,"lng":-1.4802542},"southwest":{"lat":47.1806171,"lng":-1.6416767}}},"place_id":"ChIJra6o8IHuBUgRMO0NHlI3DQQ","types":["locality","political"]}],"status":"OK"},{"results":[{"address_components":[{"long_name":"Aachen","short_name":"AC","types":["locality","political"]},{"long_name":"Cologne","short_name":"K","types":["administrative_area_level_2","political"]},{"long_name":"North Rhine-Westphalia","short_name":"NRW","types":["administrative_area_level_1","political"]},{"long_name":"Germany","short_name":"DE","types":["country","political"]}],"formatted_address":"Aachen, Germany","geometry":{"bounds":{"northeast":{"lat":50.8572332,"lng":6.2181501},"southwest":{"lat":50.6621268,"lng":5.974899199999999}},"location":{"lat":50.7753455,"lng":6.083886800000001},"location_type":"APPROXIMATE","viewport":{"northeast":{"lat":50.8572332,"lng":6.2181501},"southwest":{"lat":50.6621268,"lng":5.974899199999999}}},"place_id":"ChIJHRmKsHyZwEcRT0QOC64Oo2M","types":["locality","political"]}],"status":"OK"},{"results":[{"address_components":[{"long_name":"Luleå","short_name":"Luleå","types":["locality","political"]},{"long_name":"Luleå","short_name":"Luleå","types":["administrative_area_level_2","political"]},{"long_name":"Norrbotten County","short_name":"Norrbotten County","types":["administrative_area_level_1","political"]},{"long_name":"Sweden","short_name":"SE","types":["country","political"]}],"formatted_address":"Luleå, Sweden","geometry":{"bounds":{"northeast":{"lat":65.629758,"lng":22.3051211},"southwest":{"lat":65.5444445,"lng":22.057593}},"location":{"lat":65.584819,"lng":22.1567026},"location_type":"APPROXIMATE","viewport":{"northeast":{"lat":65.629758,"lng":22.3051211},"southwest":{"lat":65.5444445,"lng":22.057593}}},"place_id":"ChIJZ7jo0hRjf0YRIIaM3gZFAwQ","types":["locality","political"]}],"status":"OK"},{"results":[{"address_components":[{"long_name":"Lille","short_name":"Lille","types":["locality","political"]},{"long_name":"Nord","short_name":"59","types":["administrative_area_level_2","political"]},{"long_name":"Nord-Pas-de-Calais","short_name":"Nord-Pas-de-Calais","types":["administrative_area_level_1","political"]},{"long_name":"France","short_name":"FR","types":["country","political"]}],"formatted_address":"Lille, France","geometry":{"bounds":{"northeast":{"lat":50.661248,"lng":3.1263549},"southwest":{"lat":50.600887,"lng":2.967966}},"location":{"lat":50.62925,"lng":3.057256},"location_type":"APPROXIMATE","viewport":{"northeast":{"lat":50.661248,"lng":3.1263549},"southwest":{"lat":50.600887,"lng":2.967966}}},"place_id":"ChIJEW4ls3nVwkcRYGNkgT7xCgQ","types":["locality","political"]}],"status":"OK"},{"results":[{"address_components":[{"long_name":"Tsawwassen","short_name":"Tsawwassen","types":["neighborhood","political"]},{"long_name":"Delta","short_name":"Delta","types":["locality","political"]},{"long_name":"Greater Vancouver","short_name":"Greater Vancouver","types":["administrative_area_level_2","political"]},{"long_name":"British Columbia","short_name":"BC","types":["administrative_area_level_1","political"]},{"long_name":"Canada","short_name":"CA","types":["country","political"]}],"formatted_address":"Tsawwassen, Delta, BC, Canada","geometry":{"bounds":{"northeast":{"lat":49.0375299,"lng":-123.0332551},"southwest":{"lat":49.0020832,"lng":-123.1371894}},"location":{"lat":49.018038,"lng":-123.0818253},"location_type":"APPROXIMATE","viewport":{"northeast":{"lat":49.0375299,"lng":-123.0332551},"southwest":{"lat":49.0020832,"lng":-123.1371894}}},"partial_match":true,"place_id":"ChIJ4-uMgHzmhVQR7uqF9wQLJ48","types":["neighborhood","political"]}],"status":"OK"},{"results":[{"address_components":[{"long_name":"London","short_name":"London","types":["locality","political"]},{"long_name":"United Kingdom","short_name":"GB","types":["country","political"]}],"formatted_address":"London, UK","geometry":{"bounds":{"northeast":{"lat":51.6723432,"lng":0.148271},"southwest":{"lat":51.38494009999999,"lng":-0.3514683}},"location":{"lat":51.5073509,"lng":-0.1277583},"location_type":"APPROXIMATE","viewport":{"northeast":{"lat":51.6723432,"lng":0.148271},"southwest":{"lat":51.38494009999999,"lng":-0.3514683}}},"place_id":"ChIJdd4hrwug2EcRmSrV3Vo6llI","types":["locality","political"]}],"status":"OK"},{"results":[{"address_components":[{"long_name":"Barcelona–El Prat Airport","short_name":"Barcelona–El Prat Airport","types":["establishment"]},{"long_name":"El Prat de Llobregat","short_name":"El Prat de Llobregat","types":["locality","political"]},{"long_name":"Barcelona","short_name":"B","types":["administrative_area_level_2","political"]},{"long_name":"Catalonia","short_name":"CT","types":["administrative_area_level_1","political"]},{"long_name":"Spain","short_name":"ES","types":["country","political"]},{"long_name":"08820","short_name":"08820","types":["postal_code"]}],"formatted_address":"Barcelona–El Prat Airport (BCN), 08820 El Prat de Llobregat, Barcelona, Spain","geometry":{"bounds":{"northeast":{"lat":41.3146077,"lng":2.110194},"southwest":{"lat":41.2798095,"lng":2.050608}},"location":{"lat":41.297445,"lng":2.0832941},"location_type":"APPROXIMATE","viewport":{"northeast":{"lat":41.3146077,"lng":2.110194},"southwest":{"lat":41.2798095,"lng":2.050608}}},"place_id":"ChIJpY58hGSepBIR15tv-0LpK_M","types":["airport","transit_station","establishment"]},{"address_components":[{"long_name":"Barcelona","short_name":"Barcelona","types":["locality","political"]},{"long_name":"Barcelona","short_name":"Barcelona","types":["administrative_area_level_4","political"]},{"long_name":"El Barcelonès","short_name":"El Barcelonès","types":["administrative_area_level_3","political"]},{"long_name":"Barcelona","short_name":"B","types":["administrative_area_level_2","political"]},{"long_name":"Catalonia","short_name":"CT","types":["administrative_area_level_1","political"]},{"long_name":"Spain","short_name":"ES","types":["country","political"]}],"formatted_address":"Barcelona, Barcelona, Spain","geometry":{"bounds":{"northeast":{"lat":41.4695761,"lng":2.2280099},"southwest":{"lat":41.320004,"lng":2.0695258}},"location":{"lat":41.3850639,"lng":2.1734035},"location_type":"APPROXIMATE","viewport":{"northeast":{"lat":41.4695761,"lng":2.2280099},"southwest":{"lat":41.320004,"lng":2.0695258}}},"place_id":"ChIJ5TCOcRaYpBIRCmZHTz37sEQ","types":["locality","political"]}],"status":"OK"},{"results":[{"address_components":[{"long_name":"Madrid","short_name":"Madrid","types":["locality","political"]},{"long_name":"Madrid","short_name":"Madrid","types":["administrative_area_level_4","political"]},{"long_name":"Área Metropolitalitana y Corredor del Henares","short_name":"Área Metropolitalitana y Corredor del Henares","types":["administrative_area_level_3","political"]},{"long_name":"Madrid","short_name":"M","types":["administrative_area_level_2","political"]},{"long_name":"Community of Madrid","short_name":"Community of Madrid","types":["administrative_area_level_1","political"]},{"long_name":"Spain","short_name":"ES","types":["country","political"]}],"formatted_address":"Madrid, Madrid, Spain","geometry":{"bounds":{"northeast":{"lat":40.5635903,"lng":-3.5249115},"southwest":{"lat":40.3120639,"lng":-3.8341618}},"location":{"lat":40.4167754,"lng":-3.7037902},"location_type":"APPROXIMATE","viewport":{"northeast":{"lat":40.5635903,"lng":-3.5249115},"southwest":{"lat":40.3120639,"lng":-3.8341618}}},"place_id":"ChIJgTwKgJcpQg0RaSKMYcHeNsQ","types":["locality","political"]},{"address_components":[{"long_name":"Madrid","short_name":"Madrid","types":["locality","political"]},{"long_name":"Rucandio","short_name":"Rucandio","types":["administrative_area_level_4","political"]},{"long_name":"La Bureba","short_name":"La Bureba","types":["administrative_area_level_3","political"]},{"long_name":"Burgos","short_name":"Burgos","types":["administrative_area_level_2","political"]},{"long_name":"Castilla y León","short_name":"CL","types":["administrative_area_level_1","political"]},{"long_name":"Spain","short_name":"ES","types":["country","political"]},{"long_name":"09593","short_name":"09593","types":["postal_code"]}],"formatted_address":"09593 Madrid, Burgos, Spain","geometry":{"bounds":{"northeast":{"lat":42.77213210000001,"lng":-3.538175},"southwest":{"lat":42.7694126,"lng":-3.5414953}},"location":{"lat":42.7705252,"lng":-3.5404748},"location_type":"APPROXIMATE","viewport":{"northeast":{"lat":42.77213210000001,"lng":-3.538175},"southwest":{"lat":42.7694126,"lng":-3.5414953}}},"place_id":"ChIJAdKKGQBHTw0RV4YavoM1xUw","types":["locality","political"]},{"address_components":[{"long_name":"Madrid","short_name":"Madrid","types":["locality","political"]},{"long_name":"Trijueque","short_name":"Trijueque","types":["administrative_area_level_4","political"]},{"long_name":"La Alcarria","short_name":"La Alcarria","types":["administrative_area_level_3","political"]},{"long_name":"Guadalajara","short_name":"Guadalajara","types":["administrative_area_level_2","political"]},{"long_name":"Castilla-La Mancha","short_name":"CM","types":["administrative_area_level_1","political"]},{"long_name":"Spain","short_name":"ES","types":["country","political"]}],"formatted_address":"Madrid, Guadalajara, Spain","geometry":{"bounds":{"northeast":{"lat":40.7967415,"lng":-2.9496916},"southwest":{"lat":40.7859553,"lng":-2.9629679}},"location":{"lat":40.79143790000001,"lng":-2.9562873},"location_type":"APPROXIMATE","viewport":{"northeast":{"lat":40.7967415,"lng":-2.9496916},"southwest":{"lat":40.7859553,"lng":-2.9629679}}},"place_id":"ChIJRYN0OMgPQw0R-dC_KCmEZO4","types":["locality","political"]}],"status":"OK"},{"results":[{"address_components":[{"long_name":"Graz","short_name":"Graz","types":["locality","political"]},{"long_name":"Graz","short_name":"Graz","types":["administrative_area_level_2","political"]},{"long_name":"Styria","short_name":"Styria","types":["administrative_area_level_1","political"]},{"long_name":"Austria","short_name":"AT","types":["country","political"]}],"formatted_address":"Graz, Austria","geometry":{"bounds":{"northeast":{"lat":47.1351393,"lng":15.5340499},"southwest":{"lat":47.01204,"lng":15.3495298}},"location":{"lat":47.070714,"lng":15.439504},"location_type":"APPROXIMATE","viewport":{"northeast":{"lat":47.1351393,"lng":15.5340499},"southwest":{"lat":47.01204,"lng":15.3495298}}},"place_id":"ChIJu2UwF4c1bkcRm93f0tGKjv4","types":["locality","political"]}],"status":"OK"},{"results":[{"address_components":[{"long_name":"Bern","short_name":"Bern","types":["locality","political"]},{"long_name":"Bern","short_name":"Bern","types":["administrative_area_level_2","political"]},{"long_name":"Canton of Bern","short_name":"BE","types":["administrative_area_level_1","political"]},{"long_name":"Switzerland","short_name":"CH","types":["country","political"]}],"formatted_address":"Bern, Switzerland","geometry":{"bounds":{"northeast":{"lat":46.99019,"lng":7.495510099999999},"southwest":{"lat":46.9191499,"lng":7.294230000000001}},"location":{"lat":46.9479222,"lng":7.444608499999999},"location_type":"APPROXIMATE","viewport":{"northeast":{"lat":46.99019,"lng":7.495510099999999},"southwest":{"lat":46.9191499,"lng":7.294230000000001}}},"place_id":"ChIJdxs61MA5jkcRmmVXBP5fVcs","types":["locality","political"]}],"status":"OK"},{"results":[{"address_components":[{"long_name":"Seville Airport","short_name":"Seville Airport","types":["establishment"]},{"long_name":"Km. 532","short_name":"Km. 532","types":["street_number"]},{"long_name":"A-4","short_name":"A-4","types":["route"]},{"long_name":"Sevilla","short_name":"Sevilla","types":["locality","political"]},{"long_name":"Sevilla","short_name":"Sevilla","types":["administrative_area_level_2","political"]},{"long_name":"Sevilla","short_name":"Sevilla","types":["administrative_area_level_1","political"]},{"long_name":"Spain","short_name":"ES","types":["country","political"]},{"long_name":"41020","short_name":"41020","types":["postal_code"]}],"formatted_address":"Seville Airport (SVQ), A-4, Km. 532, 41020 Sevilla, Sevilla, Spain","geometry":{"bounds":{"northeast":{"lat":37.4285242,"lng":-5.8720459},"southwest":{"lat":37.4088319,"lng":-5.9160811}},"location":{"lat":37.4201674,"lng":-5.89305},"location_type":"APPROXIMATE","viewport":{"northeast":{"lat":37.4285242,"lng":-5.8720459},"southwest":{"lat":37.4088319,"lng":-5.9160811}}},"place_id":"ChIJuZuEjRxmEg0ROif7oHd-UgE","types":["airport","transit_station","establishment"]},{"address_components":[{"long_name":"Seville","short_name":"Seville","types":["locality","political"]},{"long_name":"Seville","short_name":"Seville","types":["administrative_area_level_4","political"]},{"long_name":"Área Metropolitana de Sevilla","short_name":"Área Metropolitana de Sevilla","types":["administrative_area_level_3","political"]},{"long_name":"Sevilla","short_name":"Sevilla","types":["administrative_area_level_2","political"]},{"long_name":"Andalusia","short_name":"AL","types":["administrative_area_level_1","political"]},{"long_name":"Spain","short_name":"ES","types":["country","political"]}],"formatted_address":"Seville, Sevilla, Spain","geometry":{"bounds":{"northeast":{"lat":37.4355212,"lng":-5.8884587},"southwest":{"lat":37.3152203,"lng":-6.0216578}},"location":{"lat":37.3890924,"lng":-5.9844589},"location_type":"APPROXIMATE","viewport":{"northeast":{"lat":37.4355212,"lng":-5.8884587},"southwest":{"lat":37.3152203,"lng":-6.0216578}}},"place_id":"ChIJkWK-FBFsEg0RSFb-HGIY8DQ","types":["locality","political"]}],"status":"OK"},{"results":[{"address_components":[{"long_name":"Rio de Janeiro","short_name":"Rio de Janeiro","types":["locality","political"]},{"long_name":"Rio de Janeiro","short_name":"Rio de Janeiro","types":["administrative_area_level_2","political"]},{"long_name":"State of Rio de Janeiro","short_name":"RJ","types":["administrative_area_level_1","political"]},{"long_name":"Brazil","short_name":"BR","types":["country","political"]}],"formatted_address":"Rio de Janeiro - State of Rio de Janeiro, Brazil","geometry":{"bounds":{"northeast":{"lat":-22.7461987,"lng":-43.1018358},"southwest":{"lat":-23.0763469,"lng":-43.7950599}},"location":{"lat":-22.9068467,"lng":-43.1728965},"location_type":"APPROXIMATE","viewport":{"northeast":{"lat":-22.7461987,"lng":-43.1018358},"southwest":{"lat":-23.0763469,"lng":-43.7950599}}},"place_id":"ChIJW6AIkVXemwARTtIvZ2xC3FA","types":["locality","political"]},{"address_components":[{"long_name":"Rio de Janeiro","short_name":"Rio de Janeiro","types":["sublocality_level_1","sublocality","political"]},{"long_name":"Rio de Janeiro","short_name":"Rio de Janeiro","types":["locality","political"]},{"long_name":"Rio de Janeiro","short_name":"Rio de Janeiro","types":["administrative_area_level_2","political"]},{"long_name":"Rio de Janeiro","short_name":"RJ","types":["administrative_area_level_1","political"]},{"long_name":"Brazil","short_name":"BR","types":["country","political"]},{"long_name":"20211","short_name":"20211","types":["postal_code_prefix","postal_code"]}],"formatted_address":"Rio de Janeiro, Rio de Janeiro - RJ, Brazil","geometry":{"location":{"lat":-22.9133954,"lng":-43.20071009999999},"location_type":"APPROXIMATE","viewport":{"northeast":{"lat":-22.9120464197085,"lng":-43.1993611197085},"southwest":{"lat":-22.9147443802915,"lng":-43.2020590802915}}},"place_id":"ChIJK2AjMAl_mQARPFeMWcqfZdI","types":["sublocality_level_1","sublocality","political"]},{"address_components":[{"long_name":"Rio de Janeiro","short_name":"Rio de Janeiro","types":["locality","political"]},{"long_name":"Barreiras","short_name":"Barreiras","types":["administrative_area_level_2","political"]},{"long_name":"Bahia","short_name":"BA","types":["administrative_area_level_1","political"]},{"long_name":"Brazil","short_name":"BR","types":["country","political"]}],"formatted_address":"Rio de Janeiro - BA, Brazil","geometry":{"location":{"lat":-11.8034733,"lng":-46.05373789999999},"location_type":"APPROXIMATE","viewport":{"northeast":{"lat":-11.8021243197085,"lng":-46.0523889197085},"southwest":{"lat":-11.8048222802915,"lng":-46.0550868802915}}},"place_id":"ChIJ9SNMUnToNZMROeUzVd9caQs","types":["locality","political"]}],"status":"OK"},{"results":[{"address_components":[{"long_name":"Caracas","short_name":"CCS","types":["locality","political"]},{"long_name":"Libertador","short_name":"Libertador","types":["administrative_area_level_2","political"]},{"long_name":"Capital District","short_name":"Dto. Capital","types":["administrative_area_level_1","political"]},{"long_name":"Venezuela","short_name":"VE","types":["country","political"]}],"formatted_address":"Caracas, Venezuela","geometry":{"bounds":{"northeast":{"lat":10.5401335,"lng":-66.71795329999999},"southwest":{"lat":10.39665,"lng":-67.0627784}},"location":{"lat":10.4696404,"lng":-66.8037185},"location_type":"APPROXIMATE","viewport":{"northeast":{"lat":10.5401335,"lng":-66.71795329999999},"southwest":{"lat":10.39665,"lng":-67.0627784}}},"place_id":"ChIJB0iCza1YKowRg4SZCq4u3ZM","types":["locality","political"]}],"status":"OK"},{"results":[{"address_components":[{"long_name":"Munich","short_name":"M","types":["locality","political"]},{"long_name":"Upper Bavaria","short_name":"Upper Bavaria","types":["administrative_area_level_2","political"]},{"long_name":"Bavaria","short_name":"BY","types":["administrative_area_level_1","political"]},{"long_name":"Germany","short_name":"DE","types":["country","political"]}],"formatted_address":"Munich, Germany","geometry":{"bounds":{"northeast":{"lat":48.2482197,"lng":11.7228755},"southwest":{"lat":48.0616018,"lng":11.360796}},"location":{"lat":48.1351253,"lng":11.5819806},"location_type":"APPROXIMATE","viewport":{"northeast":{"lat":48.2482197,"lng":11.7228755},"southwest":{"lat":48.0616018,"lng":11.360796}}},"place_id":"ChIJ2V-Mo_l1nkcRfZixfUq4DAE","types":["locality","political"]},{"address_components":[{"long_name":"München","short_name":"München","types":["sublocality_level_1","sublocality","political"]},{"long_name":"Hirschbach","short_name":"Hirschbach","types":["locality","political"]},{"long_name":"Oberpfalz","short_name":"Oberpfalz","types":["administrative_area_level_2","political"]},{"long_name":"Bayern","short_name":"BY","types":["administrative_area_level_1","political"]},{"long_name":"Germany","short_name":"DE","types":["country","political"]},{"long_name":"92275","short_name":"92275","types":["postal_code"]}],"formatted_address":"München, 92275 Hirschbach, Germany","geometry":{"bounds":{"northeast":{"lat":49.5579544,"lng":11.5819357},"southwest":{"lat":49.5549304,"lng":11.5789998}},"location":{"lat":49.5558212,"lng":11.5808788},"location_type":"APPROXIMATE","viewport":{"northeast":{"lat":49.5579544,"lng":11.5819357},"southwest":{"lat":49.5549304,"lng":11.5789998}}},"place_id":"ChIJ_UMNe2PaoUcRYOQJNjXaHgo","types":["sublocality_level_1","sublocality","political"]},{"address_components":[{"long_name":"München","short_name":"München","types":["sublocality_level_1","sublocality","political"]},{"long_name":"Hutthurm","short_name":"Hutthurm","types":["locality","political"]},{"long_name":"Niederbayern","short_name":"Niederbayern","types":["administrative_area_level_2","political"]},{"long_name":"Bayern","short_name":"BY","types":["administrative_area_level_1","political"]},{"long_name":"Germany","short_name":"DE","types":["country","political"]},{"long_name":"94116","short_name":"94116","types":["postal_code"]}],"formatted_address":"München, 94116 Hutthurm, Germany","geometry":{"bounds":{"northeast":{"lat":48.698772,"lng":13.465833},"southwest":{"lat":48.6954164,"lng":13.4606747}},"location":{"lat":48.6968889,"lng":13.4628725},"location_type":"APPROXIMATE","viewport":{"northeast":{"lat":48.698772,"lng":13.465833},"southwest":{"lat":48.6954164,"lng":13.4606747}}},"place_id":"ChIJu3OTevjwdEcRsMgOdqYlHQo","types":["sublocality_level_1","sublocality","political"]}],"status":"OK"},{"results":[{"address_components":[{"long_name":"Leipzig","short_name":"Leipzig","types":["locality","political"]},{"long_name":"Leipzig","short_name":"Leipzig","types":["administrative_area_level_2","political"]},{"long_name":"Saxony","short_name":"SN","types":["administrative_area_level_1","political"]},{"long_name":"Germany","short_name":"DE","types":["country","political"]}],"formatted_address":"Leipzig, Germany","geometry":{"bounds":{"northeast":{"lat":51.448026,"lng":12.5506377},"southwest":{"lat":51.235539,"lng":12.2366321}},"location":{"lat":51.3396955,"lng":12.3730747},"location_type":"APPROXIMATE","viewport":{"northeast":{"lat":51.448026,"lng":12.5506377},"southwest":{"lat":51.235539,"lng":12.2366321}}},"place_id":"ChIJcywPIBj4pkcRUvW0udKA35M","types":["locality","political"]}],"status":"OK"},{"results":[{"address_components":[{"long_name":"Turin","short_name":"Turin","types":["locality","political"]},{"long_name":"Turin","short_name":"Turin","types":["administrative_area_level_3","political"]},{"long_name":"Metropolitan City of Turin","short_name":"TO","types":["administrative_area_level_2","political"]},{"long_name":"Piedmont","short_name":"Piedmont","types":["administrative_area_level_1","political"]},{"long_name":"Italy","short_name":"IT","types":["country","political"]}],"formatted_address":"Turin, Italy","geometry":{"bounds":{"northeast":{"lat":45.1335014,"lng":7.7623282},"southwest":{"lat":45.00677659999999,"lng":7.5778502}},"location":{"lat":45.070312,"lng":7.686856499999999},"location_type":"APPROXIMATE","viewport":{"northeast":{"lat":45.1335014,"lng":7.7623282},"southwest":{"lat":45.00677659999999,"lng":7.5778502}}},"place_id":"ChIJJb4YZBJtiEcRv3ec1gP4A4k","types":["locality","political"]},{"address_components":[{"long_name":"Torino","short_name":"Torino","types":["locality","political"]},{"long_name":"Leinì","short_name":"Leinì","types":["administrative_area_level_3","political"]},{"long_name":"Città Metropolitana di Torino","short_name":"TO","types":["administrative_area_level_2","political"]},{"long_name":"Piemonte","short_name":"Piemonte","types":["administrative_area_level_1","political"]},{"long_name":"Italy","short_name":"IT","types":["country","political"]},{"long_name":"10040","short_name":"10040","types":["postal_code"]}],"formatted_address":"10040 Torino, Italy","geometry":{"bounds":{"northeast":{"lat":45.2133261,"lng":7.731815300000001},"southwest":{"lat":45.211545,"lng":7.729573}},"location":{"lat":45.21208780000001,"lng":7.7309388},"location_type":"APPROXIMATE","viewport":{"northeast":{"lat":45.21378453029151,"lng":7.732043130291503},"southwest":{"lat":45.21108656970851,"lng":7.729345169708498}}},"place_id":"ChIJU-amWjFliEcRxGcvegfhUIc","types":["locality","political"]},{"address_components":[{"long_name":"Torino","short_name":"Torino","types":["locality","political"]},{"long_name":"Torino di Sangro","short_name":"Torino di Sangro","types":["administrative_area_level_3","political"]},{"long_name":"Chieti","short_name":"CH","types":["administrative_area_level_2","political"]},{"long_name":"Abruzzo","short_name":"Abruzzo","types":["administrative_area_level_1","political"]},{"long_name":"Italy","short_name":"IT","types":["country","political"]},{"long_name":"66020","short_name":"66020","types":["postal_code"]}],"formatted_address":"66020 Torino, Italy","geometry":{"bounds":{"northeast":{"lat":42.1994154,"lng":14.549027},"southwest":{"lat":42.1816603,"lng":14.5381913}},"location":{"lat":42.1852556,"lng":14.53967},"location_type":"APPROXIMATE","viewport":{"northeast":{"lat":42.1994154,"lng":14.549027},"southwest":{"lat":42.1816603,"lng":14.5381913}}},"place_id":"ChIJzYq-pcDjMBMRUU_jCTxa09M","types":["locality","political"]},{"address_components":[{"long_name":"Torino","short_name":"Torino","types":["locality","political"]},{"long_name":"Torino di Sangro","short_name":"Torino di Sangro","types":["administrative_area_level_3","political"]},{"long_name":"Chieti","short_name":"CH","types":["administrative_area_level_2","political"]},{"long_name":"Abruzzo","short_name":"Abruzzo","types":["administrative_area_level_1","political"]},{"long_name":"Italy","short_name":"IT","types":["country","political"]}],"formatted_address":"Torino, Italy","geometry":{"bounds":{"northeast":{"lat":42.2333968,"lng":14.5615788},"southwest":{"lat":42.2241149,"lng":14.5447481}},"location":{"lat":42.23149050000001,"lng":14.5476195},"location_type":"APPROXIMATE","viewport":{"northeast":{"lat":42.2333968,"lng":14.5615788},"southwest":{"lat":42.2241149,"lng":14.5447481}}},"place_id":"ChIJSfbqjxXiMBMR5FIynwNbdbU","types":["locality","political"]},{"address_components":[{"long_name":"Torino","short_name":"Torino","types":["locality","political"]},{"long_name":"Jolanda di Savoia","short_name":"Jolanda di Savoia","types":["administrative_area_level_3","political"]},{"long_name":"Ferrara","short_name":"FE","types":["administrative_area_level_2","political"]},{"long_name":"Emilia-Romagna","short_name":"Emilia-Romagna","types":["administrative_area_level_1","political"]},{"long_name":"Italy","short_name":"IT","types":["country","political"]},{"long_name":"44037","short_name":"44037","types":["postal_code"]}],"formatted_address":"44037 Torino, Italy","geometry":{"bounds":{"northeast":{"lat":44.8895886,"lng":11.9922367},"southwest":{"lat":44.8877558,"lng":11.990635}},"location":{"lat":44.88877919999999,"lng":11.9911579},"location_type":"APPROXIMATE","viewport":{"northeast":{"lat":44.8900211802915,"lng":11.9927848302915},"southwest":{"lat":44.8873232197085,"lng":11.9900868697085}}},"place_id":"ChIJI0Q4_bNmfkcR1z-WhIPtv08","types":["locality","political"]}],"status":"OK"},{"results":[{"address_components":[{"long_name":"Isla Margarita","short_name":"Isla Margarita","types":["natural_feature","establishment"]},{"long_name":"Venezuela","short_name":"VE","types":["country","political"]}],"formatted_address":"Isla Margarita, Venezuela","geometry":{"bounds":{"northeast":{"lat":11.1770176,"lng":-63.77682249999999},"southwest":{"lat":10.8611824,"lng":-64.4081917}},"location":{"lat":10.9970723,"lng":-63.91132959999999},"location_type":"APPROXIMATE","viewport":{"northeast":{"lat":11.1770176,"lng":-63.77682249999999},"southwest":{"lat":10.8611824,"lng":-64.4081917}}},"place_id":"ChIJc7GOC6nxMYwRXtjvN52Hg48","types":["natural_feature","establishment"]}],"status":"OK"},{"results":[{"address_components":[{"long_name":"Cologne","short_name":"Cologne","types":["locality","political"]},{"long_name":"Cologne","short_name":"K","types":["administrative_area_level_2","political"]},{"long_name":"North Rhine-Westphalia","short_name":"NRW","types":["administrative_area_level_1","political"]},{"long_name":"Germany","short_name":"DE","types":["country","political"]}],"formatted_address":"Cologne, Germany","geometry":{"bounds":{"northeast":{"lat":51.08496299999999,"lng":7.1620628},"southwest":{"lat":50.8295269,"lng":6.7725819}},"location":{"lat":50.937531,"lng":6.9602786},"location_type":"APPROXIMATE","viewport":{"northeast":{"lat":51.08496299999999,"lng":7.1620628},"southwest":{"lat":50.8295269,"lng":6.7725819}}},"place_id":"ChIJ5S-raZElv0cR8HcqSvxgJwQ","types":["locality","political"]}],"status":"OK"},{"results":[{"address_components":[{"long_name":"São Paulo","short_name":"São Paulo","types":["locality","political"]},{"long_name":"São Paulo","short_name":"São Paulo","types":["administrative_area_level_2","political"]},{"long_name":"State of São Paulo","short_name":"SP","types":["administrative_area_level_1","political"]},{"long_name":"Brazil","short_name":"BR","types":["country","political"]}],"formatted_address":"São Paulo - State of São Paulo, Brazil","geometry":{"bounds":{"northeast":{"lat":-23.3566039,"lng":-46.3650844},"southwest":{"lat":-24.0082209,"lng":-46.825514}},"location":{"lat":-23.5505199,"lng":-46.63330939999999},"location_type":"APPROXIMATE","viewport":{"northeast":{"lat":-23.3566039,"lng":-46.3650844},"southwest":{"lat":-24.0082209,"lng":-46.825514}}},"place_id":"ChIJ0WGkg4FEzpQRrlsz_whLqZs","types":["locality","political"]},{"address_components":[{"long_name":"São Paulo","short_name":"São Paulo","types":["locality","political"]},{"long_name":"Cocalinho","short_name":"Cocalinho","types":["administrative_area_level_2","political"]},{"long_name":"State of Mato Grosso","short_name":"MT","types":["administrative_area_level_1","political"]},{"long_name":"Brazil","short_name":"BR","types":["country","political"]}],"formatted_address":"São Paulo - State of Mato Grosso, Brazil","geometry":{"location":{"lat":-14.3652443,"lng":-51.6913553},"location_type":"APPROXIMATE","viewport":{"northeast":{"lat":-14.3638953197085,"lng":-51.6900063197085},"southwest":{"lat":-14.3665932802915,"lng":-51.6927042802915}}},"place_id":"ChIJ8wLWtI2fbpMR3OMt3lEGeC0","types":["locality","political"]},{"address_components":[{"long_name":"São Paulo","short_name":"São Paulo","types":["locality","political"]},{"long_name":"Barreirinha","short_name":"Barreirinha","types":["administrative_area_level_2","political"]},{"long_name":"Amazonas","short_name":"AM","types":["administrative_area_level_1","political"]},{"long_name":"Brazil","short_name":"BR","types":["country","political"]}],"formatted_address":"São Paulo - AM, Brazil","geometry":{"location":{"lat":-3.217999,"lng":-57.09579100000001},"location_type":"APPROXIMATE","viewport":{"northeast":{"lat":-3.216650019708498,"lng":-57.09444201970851},"southwest":{"lat":-3.219347980291502,"lng":-57.09713998029151}}},"place_id":"ChIJdQGeylavZpIRUt0usZbgb44","types":["locality","political"]},{"address_components":[{"long_name":"São Paulo","short_name":"São Paulo","types":["locality","political"]},{"long_name":"Almeirim","short_name":"Almeirim","types":["administrative_area_level_2","political"]},{"long_name":"Pará","short_name":"PA","types":["administrative_area_level_1","political"]},{"long_name":"Brazil","short_name":"BR","types":["country","political"]}],"formatted_address":"São Paulo - PA, Brazil","geometry":{"location":{"lat":-1.3375163,"lng":-52.253168},"location_type":"APPROXIMATE","viewport":{"northeast":{"lat":-1.336167319708498,"lng":-52.2518190197085},"southwest":{"lat":-1.338865280291502,"lng":-52.25451698029149}}},"place_id":"ChIJs2Vzb2sam5IRxbgXGBmAsW8","types":["locality","political"]},{"address_components":[{"long_name":"São Paulo","short_name":"São Paulo","types":["locality","political"]},{"long_name":"Ibiquera","short_name":"Ibiquera","types":["administrative_area_level_2","political"]},{"long_name":"Bahia","short_name":"BA","types":["administrative_area_level_1","political"]},{"long_name":"Brazil","short_name":"BR","types":["country","political"]}],"formatted_address":"São Paulo - BA, Brazil","geometry":{"location":{"lat":-12.45226,"lng":-40.888191},"location_type":"APPROXIMATE","viewport":{"northeast":{"lat":-12.4509110197085,"lng":-40.8868420197085},"southwest":{"lat":-12.4536089802915,"lng":-40.8895399802915}}},"place_id":"ChIJmT2-SztsagcRhxPpumXfGoY","types":["locality","political"]},{"address_components":[{"long_name":"Sao Paulo","short_name":"Sao Paulo","types":["locality","political"]},{"long_name":"Humaitá","short_name":"Humaitá","types":["administrative_area_level_2","political"]},{"long_name":"Amazonas","short_name":"AM","types":["administrative_area_level_1","political"]},{"long_name":"Brazil","short_name":"BR","types":["country","political"]}],"formatted_address":"Sao Paulo - AM, Brazil","geometry":{"location":{"lat":-7.233333,"lng":-62.90000000000001},"location_type":"APPROXIMATE","viewport":{"northeast":{"lat":-7.231984019708499,"lng":-62.8986510197085},"southwest":{"lat":-7.234681980291502,"lng":-62.90134898029151}}},"place_id":"ChIJp3zfV-q1MJIRkWQwR1_Hju8","types":["locality","political"]}],"status":"OK"},{"results":[{"address_components":[{"long_name":"Cowes","short_name":"Cowes","types":["locality","political"]},{"long_name":"Isle of Wight","short_name":"IOW","types":["administrative_area_level_2","political"]},{"long_name":"England","short_name":"England","types":["administrative_area_level_1","political"]},{"long_name":"United Kingdom","short_name":"GB","types":["country","political"]}],"formatted_address":"Cowes, Isle of Wight, UK","geometry":{"bounds":{"northeast":{"lat":50.7673584,"lng":-1.2912292},"southwest":{"lat":50.7393981,"lng":-1.3293501}},"location":{"lat":50.76278500000001,"lng":-1.300533},"location_type":"APPROXIMATE","viewport":{"northeast":{"lat":50.7673584,"lng":-1.2912292},"southwest":{"lat":50.7393981,"lng":-1.3293501}}},"place_id":"ChIJH9eDl1RjdEgRD-ZEQB6VS0g","types":["locality","political"]}],"status":"OK"},{"results":[{"address_components":[{"long_name":"Mannheim","short_name":"MA","types":["locality","political"]},{"long_name":"Baden-Württemberg","short_name":"BW","types":["administrative_area_level_1","political"]},{"long_name":"Germany","short_name":"DE","types":["country","political"]}],"formatted_address":"Mannheim, Germany","geometry":{"bounds":{"northeast":{"lat":49.5904894,"lng":8.5899901},"southwest":{"lat":49.4103619,"lng":8.4141602}},"location":{"lat":49.4874592,"lng":8.466039499999999},"location_type":"APPROXIMATE","viewport":{"northeast":{"lat":49.5904894,"lng":8.5899901},"southwest":{"lat":49.4103619,"lng":8.4141602}}},"place_id":"ChIJRT-OUSTMl0cRh-YGpHr-5LE","types":["locality","political"]}],"status":"OK"},{"results":[{"address_components":[{"long_name":"Cunewalde","short_name":"Cunewalde","types":["locality","political"]},{"long_name":"Bautzen","short_name":"BZ","types":["administrative_area_level_3","political"]},{"long_name":"Dresden","short_name":"DD","types":["administrative_area_level_2","political"]},{"long_name":"Saxony","short_name":"SN","types":["administrative_area_level_1","political"]},{"long_name":"Germany","short_name":"DE","types":["country","political"]}],"formatted_address":"Cunewalde, Germany","geometry":{"bounds":{"northeast":{"lat":51.1209302,"lng":14.5841495},"southwest":{"lat":51.0766741,"lng":14.4714915}},"location":{"lat":51.0983923,"lng":14.5208145},"location_type":"APPROXIMATE","viewport":{"northeast":{"lat":51.1209302,"lng":14.5841495},"southwest":{"lat":51.0766741,"lng":14.4714915}}},"place_id":"ChIJWTzE2xsCCUcR8NKIQsuxIQQ","types":["locality","political"]}],"status":"OK"},{"results":[{"address_components":[{"long_name":"Lander","short_name":"Lander","types":["locality","political"]},{"long_name":"Fremont County","short_name":"Fremont County","types":["administrative_area_level_2","political"]},{"long_name":"Wyoming","short_name":"WY","types":["administrative_area_level_1","political"]},{"long_name":"United States","short_name":"US","types":["country","political"]},{"long_name":"82520","short_name":"82520","types":["postal_code"]}],"formatted_address":"Lander, WY 82520, USA","geometry":{"bounds":{"northeast":{"lat":42.851641,"lng":-108.68569},"southwest":{"lat":42.745702,"lng":-108.8118241}},"location":{"lat":42.833014,"lng":-108.7306725},"location_type":"APPROXIMATE","viewport":{"northeast":{"lat":42.851641,"lng":-108.704078},"southwest":{"lat":42.810071,"lng":-108.76097}}},"place_id":"ChIJrwBXldXbTFMREz2dvpp3akY","types":["locality","political"]}],"status":"OK"},{"results":[{"address_components":[{"long_name":"Stuttgart","short_name":"Stuttgart","types":["locality","political"]},{"long_name":"Stuttgart","short_name":"Süd","types":["administrative_area_level_2","political"]},{"long_name":"Baden-Württemberg","short_name":"BW","types":["administrative_area_level_1","political"]},{"long_name":"Germany","short_name":"DE","types":["country","political"]}],"formatted_address":"Stuttgart, Germany","geometry":{"bounds":{"northeast":{"lat":48.86639940000001,"lng":9.3158251},"southwest":{"lat":48.6920187,"lng":9.0386053}},"location":{"lat":48.7758459,"lng":9.1829321},"location_type":"APPROXIMATE","viewport":{"northeast":{"lat":48.86639940000001,"lng":9.3158251},"southwest":{"lat":48.6920187,"lng":9.0386053}}},"place_id":"ChIJ04-twTTbmUcR5M-RdxzB1Xk","types":["locality","political"]}],"status":"OK"},{"results":[{"address_components":[{"long_name":"Stavern","short_name":"Stavern","types":["locality","political"]},{"long_name":"Larvik","short_name":"Larvik","types":["administrative_area_level_2","political"]},{"long_name":"Vestfold","short_name":"Vestfold","types":["administrative_area_level_1","political"]},{"long_name":"Norway","short_name":"NO","types":["country","political"]}],"formatted_address":"Stavern, Norway","geometry":{"location":{"lat":58.9982871,"lng":10.0355946},"location_type":"APPROXIMATE","viewport":{"northeast":{"lat":59.0040337,"lng":10.051602},"southwest":{"lat":58.9925395,"lng":10.0195872}}},"place_id":"ChIJV-lz_VPpRkYRKdSvxOWscJ4","types":["locality","political"]}],"status":"OK"},{"results":[{"address_components":[{"long_name":"Barquisimeto","short_name":"Barquisimeto","types":["locality","political"]},{"long_name":"Iribarren","short_name":"Iribarren","types":["administrative_area_level_2","political"]},{"long_name":"Lara","short_name":"Lara","types":["administrative_area_level_1","political"]},{"long_name":"Venezuela","short_name":"VE","types":["country","political"]}],"formatted_address":"Barquisimeto, Venezuela","geometry":{"bounds":{"northeast":{"lat":10.1265609,"lng":-69.25824170000001},"southwest":{"lat":9.9971718,"lng":-69.467454}},"location":{"lat":10.063611,"lng":-69.334722},"location_type":"APPROXIMATE","viewport":{"northeast":{"lat":10.1265609,"lng":-69.25824170000001},"southwest":{"lat":9.9971718,"lng":-69.467454}}},"place_id":"ChIJcYY-eB1nh44R28MZFeHhL5c","types":["locality","political"]}],"status":"OK"},{"results":[{"address_components":[{"long_name":"Boise","short_name":"Boise","types":["locality","political"]},{"long_name":"Ada County","short_name":"Ada County","types":["administrative_area_level_2","political"]},{"long_name":"Idaho","short_name":"ID","types":["administrative_area_level_1","political"]},{"long_name":"United States","short_name":"US","types":["country","political"]}],"formatted_address":"Boise, ID, USA","geometry":{"bounds":{"northeast":{"lat":43.6898951,"lng":-116.101909},"southwest":{"lat":43.511717,"lng":-116.3658869}},"location":{"lat":43.6187102,"lng":-116.2146068},"location_type":"APPROXIMATE","viewport":{"northeast":{"lat":43.6898951,"lng":-116.101909},"southwest":{"lat":43.511717,"lng":-116.3658869}}},"place_id":"ChIJnbRH6XLxrlQRm51nNpuYW5o","types":["locality","political"]}],"status":"OK"},{"results":[{"address_components":[{"long_name":"Bergamo","short_name":"Bergamo","types":["locality","political"]},{"long_name":"Bergamo","short_name":"Bergamo","types":["administrative_area_level_3","political"]},{"long_name":"Province of Bergamo","short_name":"BG","types":["administrative_area_level_2","political"]},{"long_name":"Lombardy","short_name":"Lombardy","types":["administrative_area_level_1","political"]},{"long_name":"Italy","short_name":"IT","types":["country","political"]}],"formatted_address":"Bergamo, Province of Bergamo, Italy","geometry":{"bounds":{"northeast":{"lat":45.7238489,"lng":9.7136328},"southwest":{"lat":45.6625158,"lng":9.620546299999999}},"location":{"lat":45.6982642,"lng":9.6772698},"location_type":"APPROXIMATE","viewport":{"northeast":{"lat":45.7238489,"lng":9.7136328},"southwest":{"lat":45.6625158,"lng":9.620546299999999}}},"place_id":"ChIJc65ivBFRgUcR0aTlC4_LL9M","types":["locality","political"]}],"status":"OK"},{"results":[{"address_components":[{"long_name":"Mexico City","short_name":"México D.F.","types":["locality","political"]},{"long_name":"Federal District","short_name":"D.F.","types":["administrative_area_level_1","political"]},{"long_name":"Mexico","short_name":"MX","types":["country","political"]}],"formatted_address":"Mexico City, Federal District, Mexico","geometry":{"bounds":{"northeast":{"lat":19.5927572,"lng":-98.9604482},"southwest":{"lat":19.1887101,"lng":-99.32677699999999}},"location":{"lat":19.4326077,"lng":-99.133208},"location_type":"APPROXIMATE","viewport":{"northeast":{"lat":19.5927572,"lng":-98.9604482},"southwest":{"lat":19.1887101,"lng":-99.32677699999999}}},"place_id":"ChIJB3UJ2yYAzoURQeheJnYQBlQ","types":["locality","political"]}],"status":"OK"},{"results":[{"address_components":[{"long_name":"Resende","short_name":"Resende","types":["locality","political"]},{"long_name":"Resende","short_name":"Resende","types":["administrative_area_level_2","political"]},{"long_name":"Rio de Janeiro","short_name":"RJ","types":["administrative_area_level_1","political"]},{"long_name":"Brazil","short_name":"BR","types":["country","political"]}],"formatted_address":"Resende - RJ, Brazil","geometry":{"bounds":{"northeast":{"lat":-22.4287961,"lng":-44.4295085},"southwest":{"lat":-22.5063684,"lng":-44.6851415}},"location":{"lat":-22.4709659,"lng":-44.4513347},"location_type":"APPROXIMATE","viewport":{"northeast":{"lat":-22.4287961,"lng":-44.4295085},"southwest":{"lat":-22.4971836,"lng":-44.5099373}}},"place_id":"ChIJlfVB1Y13ngARgd8VmvS2Izg","types":["locality","political"]}],"status":"OK"},{"results":[{"address_components":[{"long_name":"Marseille","short_name":"Marseille","types":["locality","political"]},{"long_name":"Bouches-du-Rhone","short_name":"13","types":["administrative_area_level_2","political"]},{"long_name":"Provence-Alpes-Côte d'Azur","short_name":"PACA","types":["administrative_area_level_1","political"]},{"long_name":"France","short_name":"FR","types":["country","political"]}],"formatted_address":"Marseille, France","geometry":{"bounds":{"northeast":{"lat":43.3911601,"lng":5.5323519},"southwest":{"lat":43.169621,"lng":5.228641}},"location":{"lat":43.296482,"lng":5.36978},"location_type":"APPROXIMATE","viewport":{"northeast":{"lat":43.3911601,"lng":5.5323519},"southwest":{"lat":43.169621,"lng":5.277926100000001}}},"place_id":"ChIJM1PaREO_yRIRIAKX_aUZCAQ","types":["locality","political"]}],"status":"OK"},{"results":[{"address_components":[{"long_name":"Cork","short_name":"Cork","types":["locality","political"]},{"long_name":"Cork City","short_name":"Cork City","types":["administrative_area_level_2","political"]},{"long_name":"Cork","short_name":"Cork","types":["administrative_area_level_1","political"]},{"long_name":"Ireland","short_name":"IE","types":["country","political"]}],"formatted_address":"Cork, Ireland","geometry":{"bounds":{"northeast":{"lat":51.93586,"lng":-8.380579899999999},"southwest":{"lat":51.8561501,"lng":-8.54552}},"location":{"lat":51.8968917,"lng":-8.4863157},"location_type":"APPROXIMATE","viewport":{"northeast":{"lat":51.93586,"lng":-8.380579899999999},"southwest":{"lat":51.8561501,"lng":-8.54552}}},"place_id":"ChIJYbm-kQiQREgR0MUxl6nHAAo","types":["locality","political"]}],"status":"OK"},{"error_message":"You have exceeded your rate-limit for this API.","results":[],"status":"OVER_QUERY_LIMIT"},{"error_message":"You have exceeded your rate-limit for this API.","results":[],"status":"OVER_QUERY_LIMIT"},{"error_message":"You have exceeded your rate-limit for this API.","results":[],"status":"OVER_QUERY_LIMIT"},{"error_message":"You have exceeded your rate-limit for this API.","results":[],"status":"OVER_QUERY_LIMIT"},{"error_message":"You have exceeded your rate-limit for this API.","results":[],"status":"OVER_QUERY_LIMIT"},{"error_message":"You have exceeded your rate-limit for this API.","results":[],"status":"OVER_QUERY_LIMIT"},{"error_message":"You have exceeded your rate-limit for this API.","results":[],"status":"OVER_QUERY_LIMIT"},{"error_message":"You have exceeded your rate-limit for this API.","results":[],"status":"OVER_QUERY_LIMIT"},{"error_message":"You have exceeded your rate-limit for this API.","results":[],"status":"OVER_QUERY_LIMIT"},{"error_message":"You have exceeded your rate-limit for this API.","results":[],"status":"OVER_QUERY_LIMIT"},{"error_message":"You have exceeded your rate-limit for this API.","results":[],"status":"OVER_QUERY_LIMIT"},{"error_message":"You have exceeded your rate-limit for this API.","results":[],"status":"OVER_QUERY_LIMIT"},{"error_message":"You have exceeded your rate-limit for this API.","results":[],"status":"OVER_QUERY_LIMIT"},{"error_message":"You have exceeded your rate-limit for this API.","results":[],"status":"OVER_QUERY_LIMIT"},{"error_message":"You have exceeded your rate-limit for this API.","results":[],"status":"OVER_QUERY_LIMIT"},{"error_message":"You have exceeded your rate-limit for this API.","results":[],"status":"OVER_QUERY_LIMIT"},{"error_message":"You have exceeded your rate-limit for this API.","results":[],"status":"OVER_QUERY_LIMIT"},{"results":[{"address_components":[{"long_name":"Copenhagen","short_name":"kbh","types":["locality","political"]},{"long_name":"København","short_name":"København","types":["administrative_area_level_2","political"]},{"long_name":"Capital Region of Denmark","short_name":"Capital Region of Denmark","types":["administrative_area_level_1","political"]},{"long_name":"Denmark","short_name":"DK","types":["country","political"]}],"formatted_address":"Copenhagen, Denmark","geometry":{"bounds":{"northeast":{"lat":55.7270937,"lng":12.7342654},"southwest":{"lat":55.615441,"lng":12.4533824}},"location":{"lat":55.6760968,"lng":12.5683371},"location_type":"APPROXIMATE","viewport":{"northeast":{"lat":55.7270937,"lng":12.6682953},"southwest":{"lat":55.615441,"lng":12.4533824}}},"place_id":"ChIJIz2AXDxTUkYRuGeU5t1-3QQ","types":["locality","political"]}],"status":"OK"},{"error_message":"You have exceeded your rate-limit for this API.","results":[],"status":"OVER_QUERY_LIMIT"},{"error_message":"You have exceeded your rate-limit for this API.","results":[],"status":"OVER_QUERY_LIMIT"},{"results":[{"address_components":[{"long_name":"Oulu","short_name":"Oulu","types":["locality","political"]},{"long_name":"Oulu","short_name":"Oulu","types":["administrative_area_level_3","political"]},{"long_name":"Northern Ostrobothnia","short_name":"Northern Ostrobothnia","types":["administrative_area_level_1","political"]},{"long_name":"Finland","short_name":"FI","types":["country","political"]},{"long_name":"90590","short_name":"90590","types":["postal_code"]}],"formatted_address":"90100 Oulu, Finland","geometry":{"location":{"lat":65.0126148,"lng":25.4714526},"location_type":"APPROXIMATE","viewport":{"northeast":{"lat":65.0173277,"lng":25.48746},"southwest":{"lat":65.007901,"lng":25.4554452}}},"place_id":"ChIJwYUhwKgygEYRfekSKzItsIs","types":["locality","political"]}],"status":"OK"},{"results":[{"address_components":[{"long_name":"Reims","short_name":"Reims","types":["locality","political"]},{"long_name":"Marne","short_name":"51","types":["administrative_area_level_2","political"]},{"long_name":"Champagne-Ardenne","short_name":"Champagne-Ardenne","types":["administrative_area_level_1","political"]},{"long_name":"France","short_name":"FR","types":["country","political"]}],"formatted_address":"Reims, France","geometry":{"bounds":{"northeast":{"lat":49.30317410000001,"lng":4.1241371},"southwest":{"lat":49.2039281,"lng":3.98604}},"location":{"lat":49.258329,"lng":4.031696},"location_type":"APPROXIMATE","viewport":{"northeast":{"lat":49.30317410000001,"lng":4.1241371},"southwest":{"lat":49.2039281,"lng":3.98604}}},"place_id":"ChIJCTtTSjN06UcRwEU7mrlfCgQ","types":["locality","political"]},{"address_components":[{"long_name":"Reims-la-Brûlée","short_name":"Reims-la-Brûlée","types":["locality","political"]},{"long_name":"Marne","short_name":"51","types":["administrative_area_level_2","political"]},{"long_name":"Champagne-Ardenne","short_name":"Champagne-Ardenne","types":["administrative_area_level_1","political"]},{"long_name":"France","short_name":"FR","types":["country","political"]},{"long_name":"51300","short_name":"51300","types":["postal_code"]}],"formatted_address":"51300 Reims-la-Brûlée, France","geometry":{"bounds":{"northeast":{"lat":48.734499,"lng":4.706544},"southwest":{"lat":48.707877,"lng":4.637627}},"location":{"lat":48.719131,"lng":4.669036},"location_type":"APPROXIMATE","viewport":{"northeast":{"lat":48.734499,"lng":4.706544},"southwest":{"lat":48.707877,"lng":4.637627}}},"place_id":"ChIJIeNGsL2M60cRZ71V3btGNvk","types":["locality","political"]}],"status":"OK"},{"results":[{"address_components":[{"long_name":"Reggio Emilia","short_name":"Reggio Emilia","types":["locality","political"]},{"long_name":"Reggio Emilia","short_name":"Reggio Emilia","types":["administrative_area_level_3","political"]},{"long_name":"Province of Reggio Emilia","short_name":"RE","types":["administrative_area_level_2","political"]},{"long_name":"Emilia-Romagna","short_name":"Emilia-Romagna","types":["administrative_area_level_1","political"]},{"long_name":"Italy","short_name":"IT","types":["country","political"]}],"formatted_address":"Reggio Emilia, Province of Reggio Emilia, Italy","geometry":{"bounds":{"northeast":{"lat":44.7482256,"lng":10.7245189},"southwest":{"lat":44.6550334,"lng":10.5520175}},"location":{"lat":44.6989932,"lng":10.6296859},"location_type":"APPROXIMATE","viewport":{"northeast":{"lat":44.7482256,"lng":10.7245189},"southwest":{"lat":44.6550334,"lng":10.5520175}}},"place_id":"ChIJs_nlB1scgEcRNQOGTL5Q5tk","types":["locality","political"]}],"status":"OK"},{"results":[{"address_components":[{"long_name":"Frankfurt","short_name":"Frankfurt","types":["locality","political"]},{"long_name":"Darmstadt","short_name":"DA","types":["administrative_area_level_2","political"]},{"long_name":"Hesse","short_name":"HE","types":["administrative_area_level_1","political"]},{"long_name":"Germany","short_name":"DE","types":["country","political"]}],"formatted_address":"Frankfurt, Germany","geometry":{"bounds":{"northeast":{"lat":50.2272095,"lng":8.8003977},"southwest":{"lat":50.0152145,"lng":8.4727299}},"location":{"lat":50.1109221,"lng":8.6821267},"location_type":"APPROXIMATE","viewport":{"northeast":{"lat":50.2272095,"lng":8.8003977},"southwest":{"lat":50.0152145,"lng":8.4727299}}},"partial_match":true,"place_id":"ChIJxZZwR28JvUcRAMawKVBDIgQ","types":["locality","political"]}],"status":"OK"},{"results":[{"address_components":[{"long_name":"Warsaw","short_name":"Warsaw","types":["locality","political"]},{"long_name":"Warszawa","short_name":"Warszawa","types":["administrative_area_level_3","political"]},{"long_name":"Warszawa","short_name":"Warszawa","types":["administrative_area_level_2","political"]},{"long_name":"Masovian Voivodeship","short_name":"Masovian Voivodeship","types":["administrative_area_level_1","political"]},{"long_name":"Poland","short_name":"PL","types":["country","political"]}],"formatted_address":"Warsaw, Poland","geometry":{"bounds":{"northeast":{"lat":52.3679992,"lng":21.2710983},"southwest":{"lat":52.0978767,"lng":20.8512898}},"location":{"lat":52.2296756,"lng":21.0122287},"location_type":"APPROXIMATE","viewport":{"northeast":{"lat":52.3679992,"lng":21.2710983},"southwest":{"lat":52.0978767,"lng":20.8512898}}},"place_id":"ChIJAZ-GmmbMHkcR_NPqiCq-8HI","types":["locality","political"]}],"status":"OK"},{"error_message":"You have exceeded your rate-limit for this API.","results":[],"status":"OVER_QUERY_LIMIT"},{"error_message":"You have exceeded your rate-limit for this API.","results":[],"status":"OVER_QUERY_LIMIT"},{"results":[{"address_components":[{"long_name":"Albuquerque","short_name":"Albuquerque","types":["locality","political"]},{"long_name":"Bernalillo County","short_name":"Bernalillo County","types":["administrative_area_level_2","political"]},{"long_name":"New Mexico","short_name":"NM","types":["administrative_area_level_1","political"]},{"long_name":"United States","short_name":"US","types":["country","political"]}],"formatted_address":"Albuquerque, NM, USA","geometry":{"bounds":{"northeast":{"lat":35.2180539,"lng":-106.4711629},"southwest":{"lat":34.9467659,"lng":-106.881796}},"location":{"lat":35.0853336,"lng":-106.6055534},"location_type":"APPROXIMATE","viewport":{"northeast":{"lat":35.2180539,"lng":-106.4711629},"southwest":{"lat":34.9467659,"lng":-106.881796}}},"place_id":"ChIJe4MJ090KIocR_fbZuM7408A","types":["locality","political"]}],"status":"OK"},{"results":[{"address_components":[{"long_name":"Salzburg","short_name":"Salzburg","types":["locality","political"]},{"long_name":"Salzburg","short_name":"Salzburg","types":["administrative_area_level_2","political"]},{"long_name":"Salzburg","short_name":"Salzburg","types":["administrative_area_level_1","political"]},{"long_name":"Austria","short_name":"AT","types":["country","political"]}],"formatted_address":"Salzburg, Austria","geometry":{"bounds":{"northeast":{"lat":47.85431,"lng":13.1268799},"southwest":{"lat":47.75131,"lng":12.9859801}},"location":{"lat":47.80949,"lng":13.05501},"location_type":"APPROXIMATE","viewport":{"northeast":{"lat":47.85431,"lng":13.1268799},"southwest":{"lat":47.75131,"lng":12.9859801}}},"place_id":"ChIJsdQIqd2adkcRPfcqQaGD4cE","types":["locality","political"]}],"status":"OK"},{"error_message":"You have exceeded your rate-limit for this API.","results":[],"status":"OVER_QUERY_LIMIT"},{"error_message":"You have exceeded your rate-limit for this API.","results":[],"status":"OVER_QUERY_LIMIT"},{"results":[{"address_components":[{"long_name":"Seattle","short_name":"Seattle","types":["locality","political"]},{"long_name":"King County","short_name":"King County","types":["administrative_area_level_2","political"]},{"long_name":"Washington","short_name":"WA","types":["administrative_area_level_1","political"]},{"long_name":"United States","short_name":"US","types":["country","political"]}],"formatted_address":"Seattle, WA, USA","geometry":{"bounds":{"northeast":{"lat":47.734145,"lng":-122.2359031},"southwest":{"lat":47.4955511,"lng":-122.4359085}},"location":{"lat":47.6062095,"lng":-122.3320708},"location_type":"APPROXIMATE","viewport":{"northeast":{"lat":47.734145,"lng":-122.2359031},"southwest":{"lat":47.4955511,"lng":-122.4359085}}},"place_id":"ChIJVTPokywQkFQRmtVEaUZlJRA","types":["locality","political"]}],"status":"OK"},{"results":[{"address_components":[{"long_name":"Versailles","short_name":"Versailles","types":["locality","political"]},{"long_name":"Yvelines","short_name":"78","types":["administrative_area_level_2","political"]},{"long_name":"Île-de-France","short_name":"IDF","types":["administrative_area_level_1","political"]},{"long_name":"France","short_name":"FR","types":["country","political"]}],"formatted_address":"Versailles, France","geometry":{"bounds":{"northeast":{"lat":48.828575,"lng":2.1684639},"southwest":{"lat":48.77916099999999,"lng":2.0698931}},"location":{"lat":48.801408,"lng":2.130122},"location_type":"APPROXIMATE","viewport":{"northeast":{"lat":48.828575,"lng":2.1684639},"southwest":{"lat":48.77916099999999,"lng":2.0698931}}},"place_id":"ChIJvSD0dbR95kcRukqEDa0AnoY","types":["locality","political"]}],"status":"OK"},{"results":[{"address_components":[{"long_name":"Charleroi","short_name":"Charleroi","types":["locality","political"]},{"long_name":"Hainaut","short_name":"HT","types":["administrative_area_level_2","political"]},{"long_name":"Walloon Region","short_name":"Walloon Region","types":["administrative_area_level_1","political"]},{"long_name":"Belgium","short_name":"BE","types":["country","political"]}],"formatted_address":"Charleroi, Belgium","geometry":{"bounds":{"northeast":{"lat":50.4929701,"lng":4.5074999},"southwest":{"lat":50.3529,"lng":4.34772}},"location":{"lat":50.4108095,"lng":4.444643},"location_type":"APPROXIMATE","viewport":{"northeast":{"lat":50.4929701,"lng":4.5074999},"southwest":{"lat":50.3529,"lng":4.34772}}},"place_id":"ChIJyTnKlvAlwkcREGRNL6uZAAQ","types":["locality","political"]},{"address_components":[{"long_name":"Charleroi","short_name":"Charleroi","types":["sublocality_level_1","sublocality","political"]},{"long_name":"Charleroi","short_name":"Charleroi","types":["locality","political"]},{"long_name":"Hainaut","short_name":"HT","types":["administrative_area_level_2","political"]},{"long_name":"Région wallonne","short_name":"Région wallonne","types":["administrative_area_level_1","political"]},{"long_name":"Belgium","short_name":"BE","types":["country","political"]},{"long_name":"6000","short_name":"6000","types":["postal_code"]}],"formatted_address":"Charleroi, 6000 Charleroi, Belgium","geometry":{"location":{"lat":50.4108998,"lng":4.4446709},"location_type":"APPROXIMATE","viewport":{"northeast":{"lat":50.41224878029149,"lng":4.446019880291503},"southwest":{"lat":50.40955081970849,"lng":4.443321919708498}}},"place_id":"ChIJsQjdEw8mwkcRufkJ2mUcPm4","types":["sublocality_level_1","sublocality","political"]}],"status":"OK"},{"results":[{"address_components":[{"long_name":"Butte","short_name":"Butte","types":["locality","political"]},{"long_name":"Silver Bow County","short_name":"Silver Bow County","types":["administrative_area_level_2","political"]},{"long_name":"Montana","short_name":"MT","types":["administrative_area_level_1","political"]},{"long_name":"United States","short_name":"US","types":["country","political"]}],"formatted_address":"Butte, MT, USA","geometry":{"bounds":{"northeast":{"lat":46.185468,"lng":-112.189937},"southwest":{"lat":45.625222,"lng":-113.085474}},"location":{"lat":46.0038232,"lng":-112.5347776},"location_type":"APPROXIMATE","viewport":{"northeast":{"lat":46.185468,"lng":-112.189937},"southwest":{"lat":45.625222,"lng":-113.085474}}},"place_id":"ChIJ0Tzv0DY_WlMRmZdPTR1ozbU","types":["locality","political"]}],"status":"OK"},{"error_message":"You have exceeded your rate-limit for this API.","results":[],"status":"OVER_QUERY_LIMIT"},{"error_message":"You have exceeded your rate-limit for this API.","results":[],"status":"OVER_QUERY_LIMIT"},{"results":[{"address_components":[{"long_name":"Seville Airport","short_name":"Seville Airport","types":["establishment"]},{"long_name":"Km. 532","short_name":"Km. 532","types":["street_number"]},{"long_name":"A-4","short_name":"A-4","types":["route"]},{"long_name":"Sevilla","short_name":"Sevilla","types":["locality","political"]},{"long_name":"Sevilla","short_name":"Sevilla","types":["administrative_area_level_2","political"]},{"long_name":"Sevilla","short_name":"Sevilla","types":["administrative_area_level_1","political"]},{"long_name":"Spain","short_name":"ES","types":["country","political"]},{"long_name":"41020","short_name":"41020","types":["postal_code"]}],"formatted_address":"Seville Airport (SVQ), A-4, Km. 532, 41020 Sevilla, Sevilla, Spain","geometry":{"bounds":{"northeast":{"lat":37.4285242,"lng":-5.8720459},"southwest":{"lat":37.4088319,"lng":-5.9160811}},"location":{"lat":37.4201674,"lng":-5.89305},"location_type":"APPROXIMATE","viewport":{"northeast":{"lat":37.4285242,"lng":-5.8720459},"southwest":{"lat":37.4088319,"lng":-5.9160811}}},"place_id":"ChIJuZuEjRxmEg0ROif7oHd-UgE","types":["airport","transit_station","establishment"]},{"address_components":[{"long_name":"Seville","short_name":"Seville","types":["locality","political"]},{"long_name":"Seville","short_name":"Seville","types":["administrative_area_level_4","political"]},{"long_name":"Área Metropolitana de Sevilla","short_name":"Área Metropolitana de Sevilla","types":["administrative_area_level_3","political"]},{"long_name":"Sevilla","short_name":"Sevilla","types":["administrative_area_level_2","political"]},{"long_name":"Andalusia","short_name":"AL","types":["administrative_area_level_1","political"]},{"long_name":"Spain","short_name":"ES","types":["country","political"]}],"formatted_address":"Seville, Sevilla, Spain","geometry":{"bounds":{"northeast":{"lat":37.4355212,"lng":-5.8884587},"southwest":{"lat":37.3152203,"lng":-6.0216578}},"location":{"lat":37.3890924,"lng":-5.9844589},"location_type":"APPROXIMATE","viewport":{"northeast":{"lat":37.4355212,"lng":-5.8884587},"southwest":{"lat":37.3152203,"lng":-6.0216578}}},"place_id":"ChIJkWK-FBFsEg0RSFb-HGIY8DQ","types":["locality","political"]}],"status":"OK"},{"results":[{"address_components":[{"long_name":"Tsawwassen","short_name":"Tsawwassen","types":["neighborhood","political"]},{"long_name":"Delta","short_name":"Delta","types":["locality","political"]},{"long_name":"Greater Vancouver","short_name":"Greater Vancouver","types":["administrative_area_level_2","political"]},{"long_name":"British Columbia","short_name":"BC","types":["administrative_area_level_1","political"]},{"long_name":"Canada","short_name":"CA","types":["country","political"]}],"formatted_address":"Tsawwassen, Delta, BC, Canada","geometry":{"bounds":{"northeast":{"lat":49.0375299,"lng":-123.0332551},"southwest":{"lat":49.0020832,"lng":-123.1371894}},"location":{"lat":49.018038,"lng":-123.0818253},"location_type":"APPROXIMATE","viewport":{"northeast":{"lat":49.0375299,"lng":-123.0332551},"southwest":{"lat":49.0020832,"lng":-123.1371894}}},"partial_match":true,"place_id":"ChIJ4-uMgHzmhVQR7uqF9wQLJ48","types":["neighborhood","political"]}],"status":"OK"},{"results":[{"address_components":[{"long_name":"Lisbon","short_name":"Lisbon","types":["locality","political"]},{"long_name":"Lisbon","short_name":"Lisbon","types":["administrative_area_level_1","political"]},{"long_name":"Portugal","short_name":"PT","types":["country","political"]}],"formatted_address":"Lisbon, Portugal","geometry":{"bounds":{"northeast":{"lat":38.7958538,"lng":-9.0905718},"southwest":{"lat":38.6913994,"lng":-9.2298356}},"location":{"lat":38.7222524,"lng":-9.1393366},"location_type":"APPROXIMATE","viewport":{"northeast":{"lat":38.7958538,"lng":-9.0905718},"southwest":{"lat":38.6913994,"lng":-9.2298356}}},"place_id":"ChIJO_PkYRozGQ0R0DaQ5L3rAAQ","types":["locality","political"]}],"status":"OK"},{"results":[{"address_components":[{"long_name":"Madrid","short_name":"Madrid","types":["locality","political"]},{"long_name":"Madrid","short_name":"Madrid","types":["administrative_area_level_4","political"]},{"long_name":"Área Metropolitalitana y Corredor del Henares","short_name":"Área Metropolitalitana y Corredor del Henares","types":["administrative_area_level_3","political"]},{"long_name":"Madrid","short_name":"M","types":["administrative_area_level_2","political"]},{"long_name":"Community of Madrid","short_name":"Community of Madrid","types":["administrative_area_level_1","political"]},{"long_name":"Spain","short_name":"ES","types":["country","political"]}],"formatted_address":"Madrid, Madrid, Spain","geometry":{"bounds":{"northeast":{"lat":40.5635903,"lng":-3.5249115},"southwest":{"lat":40.3120639,"lng":-3.8341618}},"location":{"lat":40.4167754,"lng":-3.7037902},"location_type":"APPROXIMATE","viewport":{"northeast":{"lat":40.5635903,"lng":-3.5249115},"southwest":{"lat":40.3120639,"lng":-3.8341618}}},"place_id":"ChIJgTwKgJcpQg0RaSKMYcHeNsQ","types":["locality","political"]},{"address_components":[{"long_name":"Madrid","short_name":"Madrid","types":["locality","political"]},{"long_name":"Rucandio","short_name":"Rucandio","types":["administrative_area_level_4","political"]},{"long_name":"La Bureba","short_name":"La Bureba","types":["administrative_area_level_3","political"]},{"long_name":"Burgos","short_name":"Burgos","types":["administrative_area_level_2","political"]},{"long_name":"Castilla y León","short_name":"CL","types":["administrative_area_level_1","political"]},{"long_name":"Spain","short_name":"ES","types":["country","political"]},{"long_name":"09593","short_name":"09593","types":["postal_code"]}],"formatted_address":"09593 Madrid, Burgos, Spain","geometry":{"bounds":{"northeast":{"lat":42.77213210000001,"lng":-3.538175},"southwest":{"lat":42.7694126,"lng":-3.5414953}},"location":{"lat":42.7705252,"lng":-3.5404748},"location_type":"APPROXIMATE","viewport":{"northeast":{"lat":42.77213210000001,"lng":-3.538175},"southwest":{"lat":42.7694126,"lng":-3.5414953}}},"place_id":"ChIJAdKKGQBHTw0RV4YavoM1xUw","types":["locality","political"]},{"address_components":[{"long_name":"Madrid","short_name":"Madrid","types":["locality","political"]},{"long_name":"Trijueque","short_name":"Trijueque","types":["administrative_area_level_4","political"]},{"long_name":"La Alcarria","short_name":"La Alcarria","types":["administrative_area_level_3","political"]},{"long_name":"Guadalajara","short_name":"Guadalajara","types":["administrative_area_level_2","political"]},{"long_name":"Castilla-La Mancha","short_name":"CM","types":["administrative_area_level_1","political"]},{"long_name":"Spain","short_name":"ES","types":["country","political"]}],"formatted_address":"Madrid, Guadalajara, Spain","geometry":{"bounds":{"northeast":{"lat":40.7967415,"lng":-2.9496916},"southwest":{"lat":40.7859553,"lng":-2.9629679}},"location":{"lat":40.79143790000001,"lng":-2.9562873},"location_type":"APPROXIMATE","viewport":{"northeast":{"lat":40.7967415,"lng":-2.9496916},"southwest":{"lat":40.7859553,"lng":-2.9629679}}},"place_id":"ChIJRYN0OMgPQw0R-dC_KCmEZO4","types":["locality","political"]}],"status":"OK"},{"results":[{"address_components":[{"long_name":"Munich","short_name":"M","types":["locality","political"]},{"long_name":"Upper Bavaria","short_name":"Upper Bavaria","types":["administrative_area_level_2","political"]},{"long_name":"Bavaria","short_name":"BY","types":["administrative_area_level_1","political"]},{"long_name":"Germany","short_name":"DE","types":["country","political"]}],"formatted_address":"Munich, Germany","geometry":{"bounds":{"northeast":{"lat":48.2482197,"lng":11.7228755},"southwest":{"lat":48.0616018,"lng":11.360796}},"location":{"lat":48.1351253,"lng":11.5819806},"location_type":"APPROXIMATE","viewport":{"northeast":{"lat":48.2482197,"lng":11.7228755},"southwest":{"lat":48.0616018,"lng":11.360796}}},"place_id":"ChIJ2V-Mo_l1nkcRfZixfUq4DAE","types":["locality","political"]},{"address_components":[{"long_name":"München","short_name":"München","types":["sublocality_level_1","sublocality","political"]},{"long_name":"Hirschbach","short_name":"Hirschbach","types":["locality","political"]},{"long_name":"Oberpfalz","short_name":"Oberpfalz","types":["administrative_area_level_2","political"]},{"long_name":"Bayern","short_name":"BY","types":["administrative_area_level_1","political"]},{"long_name":"Germany","short_name":"DE","types":["country","political"]},{"long_name":"92275","short_name":"92275","types":["postal_code"]}],"formatted_address":"München, 92275 Hirschbach, Germany","geometry":{"bounds":{"northeast":{"lat":49.5579544,"lng":11.5819357},"southwest":{"lat":49.5549304,"lng":11.5789998}},"location":{"lat":49.5558212,"lng":11.5808788},"location_type":"APPROXIMATE","viewport":{"northeast":{"lat":49.5579544,"lng":11.5819357},"southwest":{"lat":49.5549304,"lng":11.5789998}}},"place_id":"ChIJ_UMNe2PaoUcRYOQJNjXaHgo","types":["sublocality_level_1","sublocality","political"]},{"address_components":[{"long_name":"München","short_name":"München","types":["sublocality_level_1","sublocality","political"]},{"long_name":"Hutthurm","short_name":"Hutthurm","types":["locality","political"]},{"long_name":"Niederbayern","short_name":"Niederbayern","types":["administrative_area_level_2","political"]},{"long_name":"Bayern","short_name":"BY","types":["administrative_area_level_1","political"]},{"long_name":"Germany","short_name":"DE","types":["country","political"]},{"long_name":"94116","short_name":"94116","types":["postal_code"]}],"formatted_address":"München, 94116 Hutthurm, Germany","geometry":{"bounds":{"northeast":{"lat":48.698772,"lng":13.465833},"southwest":{"lat":48.6954164,"lng":13.4606747}},"location":{"lat":48.6968889,"lng":13.4628725},"location_type":"APPROXIMATE","viewport":{"northeast":{"lat":48.698772,"lng":13.465833},"southwest":{"lat":48.6954164,"lng":13.4606747}}},"place_id":"ChIJu3OTevjwdEcRsMgOdqYlHQo","types":["sublocality_level_1","sublocality","political"]}],"status":"OK"},{"results":[{"address_components":[{"long_name":"Barcelona–El Prat Airport","short_name":"Barcelona–El Prat Airport","types":["establishment"]},{"long_name":"El Prat de Llobregat","short_name":"El Prat de Llobregat","types":["locality","political"]},{"long_name":"Barcelona","short_name":"B","types":["administrative_area_level_2","political"]},{"long_name":"Catalonia","short_name":"CT","types":["administrative_area_level_1","political"]},{"long_name":"Spain","short_name":"ES","types":["country","political"]},{"long_name":"08820","short_name":"08820","types":["postal_code"]}],"formatted_address":"Barcelona–El Prat Airport (BCN), 08820 El Prat de Llobregat, Barcelona, Spain","geometry":{"bounds":{"northeast":{"lat":41.3146077,"lng":2.110194},"southwest":{"lat":41.2798095,"lng":2.050608}},"location":{"lat":41.297445,"lng":2.0832941},"location_type":"APPROXIMATE","viewport":{"northeast":{"lat":41.3146077,"lng":2.110194},"southwest":{"lat":41.2798095,"lng":2.050608}}},"place_id":"ChIJpY58hGSepBIR15tv-0LpK_M","types":["airport","transit_station","establishment"]},{"address_components":[{"long_name":"Barcelona","short_name":"Barcelona","types":["locality","political"]},{"long_name":"Barcelona","short_name":"Barcelona","types":["administrative_area_level_4","political"]},{"long_name":"El Barcelonès","short_name":"El Barcelonès","types":["administrative_area_level_3","political"]},{"long_name":"Barcelona","short_name":"B","types":["administrative_area_level_2","political"]},{"long_name":"Catalonia","short_name":"CT","types":["administrative_area_level_1","political"]},{"long_name":"Spain","short_name":"ES","types":["country","political"]}],"formatted_address":"Barcelona, Barcelona, Spain","geometry":{"bounds":{"northeast":{"lat":41.4695761,"lng":2.2280099},"southwest":{"lat":41.320004,"lng":2.0695258}},"location":{"lat":41.3850639,"lng":2.1734035},"location_type":"APPROXIMATE","viewport":{"northeast":{"lat":41.4695761,"lng":2.2280099},"southwest":{"lat":41.320004,"lng":2.0695258}}},"place_id":"ChIJ5TCOcRaYpBIRCmZHTz37sEQ","types":["locality","political"]}],"status":"OK"},{"results":[{"address_components":[{"long_name":"Isla Margarita","short_name":"Isla Margarita","types":["natural_feature","establishment"]},{"long_name":"Venezuela","short_name":"VE","types":["country","political"]}],"formatted_address":"Isla Margarita, Venezuela","geometry":{"bounds":{"northeast":{"lat":11.1770176,"lng":-63.77682249999999},"southwest":{"lat":10.8611824,"lng":-64.4081917}},"location":{"lat":10.9970723,"lng":-63.91132959999999},"location_type":"APPROXIMATE","viewport":{"northeast":{"lat":11.1770176,"lng":-63.77682249999999},"southwest":{"lat":10.8611824,"lng":-64.4081917}}},"place_id":"ChIJc7GOC6nxMYwRXtjvN52Hg48","types":["natural_feature","establishment"]}],"status":"OK"},{"results":[{"address_components":[{"long_name":"Elgin","short_name":"Elgin","types":["locality","political"]},{"long_name":"Kane County","short_name":"Kane County","types":["administrative_area_level_2","political"]},{"long_name":"Illinois","short_name":"IL","types":["administrative_area_level_1","political"]},{"long_name":"United States","short_name":"US","types":["country","political"]}],"formatted_address":"Elgin, IL, USA","geometry":{"bounds":{"northeast":{"lat":42.103385,"lng":-88.2227729},"southwest":{"lat":41.97137290000001,"lng":-88.449438}},"location":{"lat":42.0354084,"lng":-88.2825668},"location_type":"APPROXIMATE","viewport":{"northeast":{"lat":42.103385,"lng":-88.2227729},"southwest":{"lat":41.97137290000001,"lng":-88.449438}}},"place_id":"ChIJMwNc68D7DogRYOVU0fHLOzA","types":["locality","political"]}],"status":"OK"},{"results":[{"address_components":[{"long_name":"Caracas","short_name":"CCS","types":["locality","political"]},{"long_name":"Libertador","short_name":"Libertador","types":["administrative_area_level_2","political"]},{"long_name":"Capital District","short_name":"Dto. Capital","types":["administrative_area_level_1","political"]},{"long_name":"Venezuela","short_name":"VE","types":["country","political"]}],"formatted_address":"Caracas, Venezuela","geometry":{"bounds":{"northeast":{"lat":10.5401335,"lng":-66.71795329999999},"southwest":{"lat":10.39665,"lng":-67.0627784}},"location":{"lat":10.4696404,"lng":-66.8037185},"location_type":"APPROXIMATE","viewport":{"northeast":{"lat":10.5401335,"lng":-66.71795329999999},"southwest":{"lat":10.39665,"lng":-67.0627784}}},"place_id":"ChIJB0iCza1YKowRg4SZCq4u3ZM","types":["locality","political"]}],"status":"OK"},{"results":[{"address_components":[{"long_name":"Walla Walla","short_name":"Walla Walla","types":["locality","political"]},{"long_name":"Walla Walla County","short_name":"Walla Walla County","types":["administrative_area_level_2","political"]},{"long_name":"Washington","short_name":"WA","types":["administrative_area_level_1","political"]},{"long_name":"United States","short_name":"US","types":["country","political"]}],"formatted_address":"Walla Walla, WA, USA","geometry":{"bounds":{"northeast":{"lat":46.089531,"lng":-118.2525379},"southwest":{"lat":46.0359789,"lng":-118.4149139}},"location":{"lat":46.0645809,"lng":-118.3430209},"location_type":"APPROXIMATE","viewport":{"northeast":{"lat":46.089531,"lng":-118.2525379},"southwest":{"lat":46.0359789,"lng":-118.4149139}}},"place_id":"ChIJO_fQoEsVolQR1LEd58-vxBI","types":["locality","political"]}],"status":"OK"},{"results":[{"address_components":[{"long_name":"San Cristobal","short_name":"San Cristobal","types":["locality","political"]},{"long_name":"San Cristobal","short_name":"San Cristobal","types":["administrative_area_level_2","political"]},{"long_name":"Táchira","short_name":"Táchira","types":["administrative_area_level_1","political"]},{"long_name":"Venezuela","short_name":"VE","types":["country","political"]}],"formatted_address":"San Cristobal, Venezuela","geometry":{"bounds":{"northeast":{"lat":7.819082099999999,"lng":-72.172451},"southwest":{"lat":7.7044424,"lng":-72.2710705}},"location":{"lat":7.771357200000001,"lng":-72.22614659999999},"location_type":"APPROXIMATE","viewport":{"northeast":{"lat":7.819082099999999,"lng":-72.172451},"southwest":{"lat":7.7044424,"lng":-72.2710705}}},"place_id":"ChIJn9OClaRsZo4Rhe_HcbIlVeM","types":["locality","political"]}],"status":"OK"},{"results":[{"address_components":[{"long_name":"Cowes","short_name":"Cowes","types":["locality","political"]},{"long_name":"Isle of Wight","short_name":"IOW","types":["administrative_area_level_2","political"]},{"long_name":"England","short_name":"England","types":["administrative_area_level_1","political"]},{"long_name":"United Kingdom","short_name":"GB","types":["country","political"]}],"formatted_address":"Cowes, Isle of Wight, UK","geometry":{"bounds":{"northeast":{"lat":50.7673584,"lng":-1.2912292},"southwest":{"lat":50.7393981,"lng":-1.3293501}},"location":{"lat":50.76278500000001,"lng":-1.300533},"location_type":"APPROXIMATE","viewport":{"northeast":{"lat":50.7673584,"lng":-1.2912292},"southwest":{"lat":50.7393981,"lng":-1.3293501}}},"place_id":"ChIJH9eDl1RjdEgRD-ZEQB6VS0g","types":["locality","political"]}],"status":"OK"},{"results":[{"address_components":[{"long_name":"Cork","short_name":"Cork","types":["locality","political"]},{"long_name":"Cork City","short_name":"Cork City","types":["administrative_area_level_2","political"]},{"long_name":"Cork","short_name":"Cork","types":["administrative_area_level_1","political"]},{"long_name":"Ireland","short_name":"IE","types":["country","political"]}],"formatted_address":"Cork, Ireland","geometry":{"bounds":{"northeast":{"lat":51.93586,"lng":-8.380579899999999},"southwest":{"lat":51.8561501,"lng":-8.54552}},"location":{"lat":51.8968917,"lng":-8.4863157},"location_type":"APPROXIMATE","viewport":{"northeast":{"lat":51.93586,"lng":-8.380579899999999},"southwest":{"lat":51.8561501,"lng":-8.54552}}},"place_id":"ChIJYbm-kQiQREgR0MUxl6nHAAo","types":["locality","political"]}],"status":"OK"},{"results":[{"address_components":[{"long_name":"Rio de Janeiro","short_name":"Rio de Janeiro","types":["locality","political"]},{"long_name":"Rio de Janeiro","short_name":"Rio de Janeiro","types":["administrative_area_level_2","political"]},{"long_name":"State of Rio de Janeiro","short_name":"RJ","types":["administrative_area_level_1","political"]},{"long_name":"Brazil","short_name":"BR","types":["country","political"]}],"formatted_address":"Rio de Janeiro - State of Rio de Janeiro, Brazil","geometry":{"bounds":{"northeast":{"lat":-22.7461987,"lng":-43.1018358},"southwest":{"lat":-23.0763469,"lng":-43.7950599}},"location":{"lat":-22.9068467,"lng":-43.1728965},"location_type":"APPROXIMATE","viewport":{"northeast":{"lat":-22.7461987,"lng":-43.1018358},"southwest":{"lat":-23.0763469,"lng":-43.7950599}}},"place_id":"ChIJW6AIkVXemwARTtIvZ2xC3FA","types":["locality","political"]},{"address_components":[{"long_name":"Rio de Janeiro","short_name":"Rio de Janeiro","types":["sublocality_level_1","sublocality","political"]},{"long_name":"Rio de Janeiro","short_name":"Rio de Janeiro","types":["locality","political"]},{"long_name":"Rio de Janeiro","short_name":"Rio de Janeiro","types":["administrative_area_level_2","political"]},{"long_name":"Rio de Janeiro","short_name":"RJ","types":["administrative_area_level_1","political"]},{"long_name":"Brazil","short_name":"BR","types":["country","political"]},{"long_name":"20211","short_name":"20211","types":["postal_code_prefix","postal_code"]}],"formatted_address":"Rio de Janeiro, Rio de Janeiro - RJ, Brazil","geometry":{"location":{"lat":-22.9133954,"lng":-43.20071009999999},"location_type":"APPROXIMATE","viewport":{"northeast":{"lat":-22.9120464197085,"lng":-43.1993611197085},"southwest":{"lat":-22.9147443802915,"lng":-43.2020590802915}}},"place_id":"ChIJK2AjMAl_mQARPFeMWcqfZdI","types":["sublocality_level_1","sublocality","political"]},{"address_components":[{"long_name":"Rio de Janeiro","short_name":"Rio de Janeiro","types":["locality","political"]},{"long_name":"Barreiras","short_name":"Barreiras","types":["administrative_area_level_2","political"]},{"long_name":"Bahia","short_name":"BA","types":["administrative_area_level_1","political"]},{"long_name":"Brazil","short_name":"BR","types":["country","political"]}],"formatted_address":"Rio de Janeiro - BA, Brazil","geometry":{"location":{"lat":-11.8034733,"lng":-46.05373789999999},"location_type":"APPROXIMATE","viewport":{"northeast":{"lat":-11.8021243197085,"lng":-46.0523889197085},"southwest":{"lat":-11.8048222802915,"lng":-46.0550868802915}}},"place_id":"ChIJ9SNMUnToNZMROeUzVd9caQs","types":["locality","political"]}],"status":"OK"},{"results":[{"address_components":[{"long_name":"Campinas","short_name":"Campinas","types":["locality","political"]},{"long_name":"Campinas","short_name":"Campinas","types":["administrative_area_level_2","political"]},{"long_name":"State of São Paulo","short_name":"SP","types":["administrative_area_level_1","political"]},{"long_name":"Brazil","short_name":"BR","types":["country","political"]}],"formatted_address":"Campinas - State of São Paulo, Brazil","geometry":{"bounds":{"northeast":{"lat":-22.7333357,"lng":-46.935494},"southwest":{"lat":-23.0534185,"lng":-47.209686}},"location":{"lat":-22.9099384,"lng":-47.0626332},"location_type":"APPROXIMATE","viewport":{"northeast":{"lat":-22.7333357,"lng":-46.935494},"southwest":{"lat":-23.0534185,"lng":-47.209686}}},"place_id":"ChIJJWNL5x3GyJQRKsJ4IWo65Rc","types":["locality","political"]},{"address_components":[{"long_name":"Campinas","short_name":"Campinas","types":["locality","political"]},{"long_name":"Sumidouro","short_name":"Sumidouro","types":["administrative_area_level_2","political"]},{"long_name":"Rio de Janeiro","short_name":"RJ","types":["administrative_area_level_1","political"]},{"long_name":"Brazil","short_name":"BR","types":["country","political"]}],"formatted_address":"Campinas - RJ, Brazil","geometry":{"location":{"lat":-22.166667,"lng":-42.683333},"location_type":"APPROXIMATE","viewport":{"northeast":{"lat":-22.1653180197085,"lng":-42.68198401970849},"southwest":{"lat":-22.1680159802915,"lng":-42.68468198029149}}},"place_id":"ChIJ-RYmebQZmAARdjfWnL3-tEs","types":["locality","political"]},{"address_components":[{"long_name":"Campinas","short_name":"Campinas","types":["locality","political"]},{"long_name":"Riachão","short_name":"Riachão","types":["administrative_area_level_2","political"]},{"long_name":"Maranhão","short_name":"MA","types":["administrative_area_level_1","political"]},{"long_name":"Brazil","short_name":"BR","types":["country","political"]}],"formatted_address":"Campinas - MA, Brazil","geometry":{"location":{"lat":-7.3611029,"lng":-46.6601013},"location_type":"APPROXIMATE","viewport":{"northeast":{"lat":-7.359753919708497,"lng":-46.6587523197085},"southwest":{"lat":-7.362451880291502,"lng":-46.6614502802915}}},"place_id":"ChIJK2obM7Ba1pIRp8S4EgJ2QOA","types":["locality","political"]},{"address_components":[{"long_name":"Campinas","short_name":"Campinas","types":["locality","political"]},{"long_name":"Caldas","short_name":"Caldas","types":["administrative_area_level_2","political"]},{"long_name":"Minas Gerais","short_name":"MG","types":["administrative_area_level_1","political"]},{"long_name":"Brazil","short_name":"BR","types":["country","political"]}],"formatted_address":"Campinas - MG, Brazil","geometry":{"location":{"lat":-21.866667,"lng":-46.433333},"location_type":"APPROXIMATE","viewport":{"northeast":{"lat":-21.8653180197085,"lng":-46.4319840197085},"southwest":{"lat":-21.8680159802915,"lng":-46.4346819802915}}},"place_id":"ChIJ9xL66XPsyZQRK8LxlVWvj_s","types":["locality","political"]},{"address_components":[{"long_name":"Campinas","short_name":"Campinas","types":["locality","political"]},{"long_name":"Guajará","short_name":"Guajará","types":["administrative_area_level_2","political"]},{"long_name":"Amazonas","short_name":"AM","types":["administrative_area_level_1","political"]},{"long_name":"Brazil","short_name":"BR","types":["country","political"]}],"formatted_address":"Campinas - AM, Brazil","geometry":{"location":{"lat":-7.133332999999999,"lng":-72.083333},"location_type":"APPROXIMATE","viewport":{"northeast":{"lat":-7.131984019708497,"lng":-72.08198401970849},"southwest":{"lat":-7.134681980291502,"lng":-72.08468198029149}}},"place_id":"ChIJ9U6OsBpJl5EREG3l30KNOMY","types":["locality","political"]},{"address_components":[{"long_name":"Campinas","short_name":"Campinas","types":["locality","political"]},{"long_name":"Lagoa Vermelha","short_name":"Lagoa Vermelha","types":["administrative_area_level_2","political"]},{"long_name":"Rio Grande do Sul","short_name":"RS","types":["administrative_area_level_1","political"]},{"long_name":"Brazil","short_name":"BR","types":["country","political"]}],"formatted_address":"Campinas - RS, Brazil","geometry":{"location":{"lat":-28.2815621,"lng":-51.5198218},"location_type":"APPROXIMATE","viewport":{"northeast":{"lat":-28.2802131197085,"lng":-51.5184728197085},"southwest":{"lat":-28.2829110802915,"lng":-51.52117078029149}}},"place_id":"ChIJW1pzKgMI4pQRtDifEh8UWTU","types":["locality","political"]}],"status":"OK"},{"results":[{"address_components":[{"long_name":"Mannheim","short_name":"MA","types":["locality","political"]},{"long_name":"Baden-Württemberg","short_name":"BW","types":["administrative_area_level_1","political"]},{"long_name":"Germany","short_name":"DE","types":["country","political"]}],"formatted_address":"Mannheim, Germany","geometry":{"bounds":{"northeast":{"lat":49.5904894,"lng":8.5899901},"southwest":{"lat":49.4103619,"lng":8.4141602}},"location":{"lat":49.4874592,"lng":8.466039499999999},"location_type":"APPROXIMATE","viewport":{"northeast":{"lat":49.5904894,"lng":8.5899901},"southwest":{"lat":49.4103619,"lng":8.4141602}}},"place_id":"ChIJRT-OUSTMl0cRh-YGpHr-5LE","types":["locality","political"]}],"status":"OK"},{"results":[{"address_components":[{"long_name":"Marseille","short_name":"Marseille","types":["locality","political"]},{"long_name":"Bouches-du-Rhone","short_name":"13","types":["administrative_area_level_2","political"]},{"long_name":"Provence-Alpes-Côte d'Azur","short_name":"PACA","types":["administrative_area_level_1","political"]},{"long_name":"France","short_name":"FR","types":["country","political"]}],"formatted_address":"Marseille, France","geometry":{"bounds":{"northeast":{"lat":43.3911601,"lng":5.5323519},"southwest":{"lat":43.169621,"lng":5.228641}},"location":{"lat":43.296482,"lng":5.36978},"location_type":"APPROXIMATE","viewport":{"northeast":{"lat":43.3911601,"lng":5.5323519},"southwest":{"lat":43.169621,"lng":5.277926100000001}}},"place_id":"ChIJM1PaREO_yRIRIAKX_aUZCAQ","types":["locality","political"]}],"status":"OK"},{"results":[{"address_components":[{"long_name":"Aachen","short_name":"AC","types":["locality","political"]},{"long_name":"Cologne","short_name":"K","types":["administrative_area_level_2","political"]},{"long_name":"North Rhine-Westphalia","short_name":"NRW","types":["administrative_area_level_1","political"]},{"long_name":"Germany","short_name":"DE","types":["country","political"]}],"formatted_address":"Aachen, Germany","geometry":{"bounds":{"northeast":{"lat":50.8572332,"lng":6.2181501},"southwest":{"lat":50.6621268,"lng":5.974899199999999}},"location":{"lat":50.7753455,"lng":6.083886800000001},"location_type":"APPROXIMATE","viewport":{"northeast":{"lat":50.8572332,"lng":6.2181501},"southwest":{"lat":50.6621268,"lng":5.974899199999999}}},"place_id":"ChIJHRmKsHyZwEcRT0QOC64Oo2M","types":["locality","political"]}],"status":"OK"},{"results":[{"address_components":[{"long_name":"Luleå","short_name":"Luleå","types":["locality","political"]},{"long_name":"Luleå","short_name":"Luleå","types":["administrative_area_level_2","political"]},{"long_name":"Norrbotten County","short_name":"Norrbotten County","types":["administrative_area_level_1","political"]},{"long_name":"Sweden","short_name":"SE","types":["country","political"]}],"formatted_address":"Luleå, Sweden","geometry":{"bounds":{"northeast":{"lat":65.629758,"lng":22.3051211},"southwest":{"lat":65.5444445,"lng":22.057593}},"location":{"lat":65.584819,"lng":22.1567026},"location_type":"APPROXIMATE","viewport":{"northeast":{"lat":65.629758,"lng":22.3051211},"southwest":{"lat":65.5444445,"lng":22.057593}}},"place_id":"ChIJZ7jo0hRjf0YRIIaM3gZFAwQ","types":["locality","political"]}],"status":"OK"},{"results":[{"address_components":[{"long_name":"Strasbourg","short_name":"Strasbourg","types":["locality","political"]},{"long_name":"Bas-Rhin","short_name":"67","types":["administrative_area_level_2","political"]},{"long_name":"Alsace","short_name":"Alsace","types":["administrative_area_level_1","political"]},{"long_name":"France","short_name":"FR","types":["country","political"]}],"formatted_address":"Strasbourg, France","geometry":{"bounds":{"northeast":{"lat":48.6462221,"lng":7.836045099999999},"southwest":{"lat":48.492005,"lng":7.688142900000001}},"location":{"lat":48.5734053,"lng":7.752111299999999},"location_type":"APPROXIMATE","viewport":{"northeast":{"lat":48.6462221,"lng":7.836045099999999},"southwest":{"lat":48.492005,"lng":7.688142900000001}}},"place_id":"ChIJwbIYXknIlkcRHyTnGDFIGpc","types":["locality","political"]}],"status":"OK"},{"results":[{"address_components":[{"long_name":"Bern","short_name":"Bern","types":["locality","political"]},{"long_name":"Bern","short_name":"Bern","types":["administrative_area_level_2","political"]},{"long_name":"Canton of Bern","short_name":"BE","types":["administrative_area_level_1","political"]},{"long_name":"Switzerland","short_name":"CH","types":["country","political"]}],"formatted_address":"Bern, Switzerland","geometry":{"bounds":{"northeast":{"lat":46.99019,"lng":7.495510099999999},"southwest":{"lat":46.9191499,"lng":7.294230000000001}},"location":{"lat":46.9479222,"lng":7.444608499999999},"location_type":"APPROXIMATE","viewport":{"northeast":{"lat":46.99019,"lng":7.495510099999999},"southwest":{"lat":46.9191499,"lng":7.294230000000001}}},"place_id":"ChIJdxs61MA5jkcRmmVXBP5fVcs","types":["locality","political"]}],"status":"OK"},{"results":[{"address_components":[{"long_name":"Graz","short_name":"Graz","types":["locality","political"]},{"long_name":"Graz","short_name":"Graz","types":["administrative_area_level_2","political"]},{"long_name":"Styria","short_name":"Styria","types":["administrative_area_level_1","political"]},{"long_name":"Austria","short_name":"AT","types":["country","political"]}],"formatted_address":"Graz, Austria","geometry":{"bounds":{"northeast":{"lat":47.1351393,"lng":15.5340499},"southwest":{"lat":47.01204,"lng":15.3495298}},"location":{"lat":47.070714,"lng":15.439504},"location_type":"APPROXIMATE","viewport":{"northeast":{"lat":47.1351393,"lng":15.5340499},"southwest":{"lat":47.01204,"lng":15.3495298}}},"place_id":"ChIJu2UwF4c1bkcRm93f0tGKjv4","types":["locality","political"]}],"status":"OK"},{"results":[{"address_components":[{"long_name":"Nantes","short_name":"Nantes","types":["locality","political"]},{"long_name":"Loire-Atlantique","short_name":"44","types":["administrative_area_level_2","political"]},{"long_name":"Pays de la Loire","short_name":"Pays de la Loire","types":["administrative_area_level_1","political"]},{"long_name":"France","short_name":"FR","types":["country","political"]}],"formatted_address":"Nantes, France","geometry":{"bounds":{"northeast":{"lat":47.29582689999999,"lng":-1.4802542},"southwest":{"lat":47.1806171,"lng":-1.6416767}},"location":{"lat":47.218371,"lng":-1.553621},"location_type":"APPROXIMATE","viewport":{"northeast":{"lat":47.29582689999999,"lng":-1.4802542},"southwest":{"lat":47.1806171,"lng":-1.6416767}}},"place_id":"ChIJra6o8IHuBUgRMO0NHlI3DQQ","types":["locality","political"]}],"status":"OK"},{"results":[{"address_components":[{"long_name":"Lille","short_name":"Lille","types":["locality","political"]},{"long_name":"Nord","short_name":"59","types":["administrative_area_level_2","political"]},{"long_name":"Nord-Pas-de-Calais","short_name":"Nord-Pas-de-Calais","types":["administrative_area_level_1","political"]},{"long_name":"France","short_name":"FR","types":["country","political"]}],"formatted_address":"Lille, France","geometry":{"bounds":{"northeast":{"lat":50.661248,"lng":3.1263549},"southwest":{"lat":50.600887,"lng":2.967966}},"location":{"lat":50.62925,"lng":3.057256},"location_type":"APPROXIMATE","viewport":{"northeast":{"lat":50.661248,"lng":3.1263549},"southwest":{"lat":50.600887,"lng":2.967966}}},"place_id":"ChIJEW4ls3nVwkcRYGNkgT7xCgQ","types":["locality","political"]}],"status":"OK"},{"results":[{"address_components":[{"long_name":"Bräcke","short_name":"Bräcke","types":["locality","political"]},{"long_name":"Bräcke","short_name":"Bräcke","types":["postal_town"]},{"long_name":"Bräcke","short_name":"Bräcke","types":["administrative_area_level_2","political"]},{"long_name":"Jamtland County","short_name":"Jamtland County","types":["administrative_area_level_1","political"]},{"long_name":"Sweden","short_name":"SE","types":["country","political"]},{"long_name":"84060","short_name":"84060","types":["postal_code"]}],"formatted_address":"840 60 Bräcke, Sweden","geometry":{"bounds":{"northeast":{"lat":62.7622321,"lng":15.4393091},"southwest":{"lat":62.73619100000001,"lng":15.4004625}},"location":{"lat":62.7507414,"lng":15.4225748},"location_type":"APPROXIMATE","viewport":{"northeast":{"lat":62.7622321,"lng":15.4393091},"southwest":{"lat":62.73619100000001,"lng":15.4004625}}},"place_id":"ChIJUUBb3X18ZUYRMISM3gZFAwQ","types":["locality","political"]}],"status":"OK"},{"results":[{"address_components":[{"long_name":"Buenos Aires","short_name":"CF","types":["locality","political"]},{"long_name":"Argentina","short_name":"AR","types":["country","political"]}],"formatted_address":"Buenos Aires, Argentina","geometry":{"bounds":{"northeast":{"lat":-34.5265464,"lng":-58.33518840000001},"southwest":{"lat":-34.7051589,"lng":-58.5314522}},"location":{"lat":-34.6037232,"lng":-58.3815931},"location_type":"APPROXIMATE","viewport":{"northeast":{"lat":-34.5265464,"lng":-58.33518840000001},"southwest":{"lat":-34.7051589,"lng":-58.5314522}}},"place_id":"ChIJvQz5TjvKvJURh47oiC6Bs6A","types":["locality","political"]}],"status":"OK"},{"results":[{"address_components":[{"long_name":"Mexico City","short_name":"México D.F.","types":["locality","political"]},{"long_name":"Federal District","short_name":"D.F.","types":["administrative_area_level_1","political"]},{"long_name":"Mexico","short_name":"MX","types":["country","political"]}],"formatted_address":"Mexico City, Federal District, Mexico","geometry":{"bounds":{"northeast":{"lat":19.5927572,"lng":-98.9604482},"southwest":{"lat":19.1887101,"lng":-99.32677699999999}},"location":{"lat":19.4326077,"lng":-99.133208},"location_type":"APPROXIMATE","viewport":{"northeast":{"lat":19.5927572,"lng":-98.9604482},"southwest":{"lat":19.1887101,"lng":-99.32677699999999}}},"place_id":"ChIJB3UJ2yYAzoURQeheJnYQBlQ","types":["locality","political"]}],"status":"OK"},{"results":[{"address_components":[{"long_name":"London","short_name":"London","types":["locality","political"]},{"long_name":"United Kingdom","short_name":"GB","types":["country","political"]}],"formatted_address":"London, UK","geometry":{"bounds":{"northeast":{"lat":51.6723432,"lng":0.148271},"southwest":{"lat":51.38494009999999,"lng":-0.3514683}},"location":{"lat":51.5073509,"lng":-0.1277583},"location_type":"APPROXIMATE","viewport":{"northeast":{"lat":51.6723432,"lng":0.148271},"southwest":{"lat":51.38494009999999,"lng":-0.3514683}}},"place_id":"ChIJdd4hrwug2EcRmSrV3Vo6llI","types":["locality","political"]}],"status":"OK"},{"results":[{"address_components":[{"long_name":"Boise","short_name":"Boise","types":["locality","political"]},{"long_name":"Ada County","short_name":"Ada County","types":["administrative_area_level_2","political"]},{"long_name":"Idaho","short_name":"ID","types":["administrative_area_level_1","political"]},{"long_name":"United States","short_name":"US","types":["country","political"]}],"formatted_address":"Boise, ID, USA","geometry":{"bounds":{"northeast":{"lat":43.6898951,"lng":-116.101909},"southwest":{"lat":43.511717,"lng":-116.3658869}},"location":{"lat":43.6187102,"lng":-116.2146068},"location_type":"APPROXIMATE","viewport":{"northeast":{"lat":43.6898951,"lng":-116.101909},"southwest":{"lat":43.511717,"lng":-116.3658869}}},"place_id":"ChIJnbRH6XLxrlQRm51nNpuYW5o","types":["locality","political"]}],"status":"OK"},{"results":[{"address_components":[{"long_name":"Turin","short_name":"Turin","types":["locality","political"]},{"long_name":"Turin","short_name":"Turin","types":["administrative_area_level_3","political"]},{"long_name":"Metropolitan City of Turin","short_name":"TO","types":["administrative_area_level_2","political"]},{"long_name":"Piedmont","short_name":"Piedmont","types":["administrative_area_level_1","political"]},{"long_name":"Italy","short_name":"IT","types":["country","political"]}],"formatted_address":"Turin, Italy","geometry":{"bounds":{"northeast":{"lat":45.1335014,"lng":7.7623282},"southwest":{"lat":45.00677659999999,"lng":7.5778502}},"location":{"lat":45.070312,"lng":7.686856499999999},"location_type":"APPROXIMATE","viewport":{"northeast":{"lat":45.1335014,"lng":7.7623282},"southwest":{"lat":45.00677659999999,"lng":7.5778502}}},"place_id":"ChIJJb4YZBJtiEcRv3ec1gP4A4k","types":["locality","political"]},{"address_components":[{"long_name":"Torino","short_name":"Torino","types":["locality","political"]},{"long_name":"Leinì","short_name":"Leinì","types":["administrative_area_level_3","political"]},{"long_name":"Città Metropolitana di Torino","short_name":"TO","types":["administrative_area_level_2","political"]},{"long_name":"Piemonte","short_name":"Piemonte","types":["administrative_area_level_1","political"]},{"long_name":"Italy","short_name":"IT","types":["country","political"]},{"long_name":"10040","short_name":"10040","types":["postal_code"]}],"formatted_address":"10040 Torino, Italy","geometry":{"bounds":{"northeast":{"lat":45.2133261,"lng":7.731815300000001},"southwest":{"lat":45.211545,"lng":7.729573}},"location":{"lat":45.21208780000001,"lng":7.7309388},"location_type":"APPROXIMATE","viewport":{"northeast":{"lat":45.21378453029151,"lng":7.732043130291503},"southwest":{"lat":45.21108656970851,"lng":7.729345169708498}}},"place_id":"ChIJU-amWjFliEcRxGcvegfhUIc","types":["locality","political"]},{"address_components":[{"long_name":"Torino","short_name":"Torino","types":["locality","political"]},{"long_name":"Torino di Sangro","short_name":"Torino di Sangro","types":["administrative_area_level_3","political"]},{"long_name":"Chieti","short_name":"CH","types":["administrative_area_level_2","political"]},{"long_name":"Abruzzo","short_name":"Abruzzo","types":["administrative_area_level_1","political"]},{"long_name":"Italy","short_name":"IT","types":["country","political"]},{"long_name":"66020","short_name":"66020","types":["postal_code"]}],"formatted_address":"66020 Torino, Italy","geometry":{"bounds":{"northeast":{"lat":42.1994154,"lng":14.549027},"southwest":{"lat":42.1816603,"lng":14.5381913}},"location":{"lat":42.1852556,"lng":14.53967},"location_type":"APPROXIMATE","viewport":{"northeast":{"lat":42.1994154,"lng":14.549027},"southwest":{"lat":42.1816603,"lng":14.5381913}}},"place_id":"ChIJzYq-pcDjMBMRUU_jCTxa09M","types":["locality","political"]},{"address_components":[{"long_name":"Torino","short_name":"Torino","types":["locality","political"]},{"long_name":"Torino di Sangro","short_name":"Torino di Sangro","types":["administrative_area_level_3","political"]},{"long_name":"Chieti","short_name":"CH","types":["administrative_area_level_2","political"]},{"long_name":"Abruzzo","short_name":"Abruzzo","types":["administrative_area_level_1","political"]},{"long_name":"Italy","short_name":"IT","types":["country","political"]}],"formatted_address":"Torino, Italy","geometry":{"bounds":{"northeast":{"lat":42.2333968,"lng":14.5615788},"southwest":{"lat":42.2241149,"lng":14.5447481}},"location":{"lat":42.23149050000001,"lng":14.5476195},"location_type":"APPROXIMATE","viewport":{"northeast":{"lat":42.2333968,"lng":14.5615788},"southwest":{"lat":42.2241149,"lng":14.5447481}}},"place_id":"ChIJSfbqjxXiMBMR5FIynwNbdbU","types":["locality","political"]},{"address_components":[{"long_name":"Torino","short_name":"Torino","types":["locality","political"]},{"long_name":"Jolanda di Savoia","short_name":"Jolanda di Savoia","types":["administrative_area_level_3","political"]},{"long_name":"Ferrara","short_name":"FE","types":["administrative_area_level_2","political"]},{"long_name":"Emilia-Romagna","short_name":"Emilia-Romagna","types":["administrative_area_level_1","political"]},{"long_name":"Italy","short_name":"IT","types":["country","political"]},{"long_name":"44037","short_name":"44037","types":["postal_code"]}],"formatted_address":"44037 Torino, Italy","geometry":{"bounds":{"northeast":{"lat":44.8895886,"lng":11.9922367},"southwest":{"lat":44.8877558,"lng":11.990635}},"location":{"lat":44.88877919999999,"lng":11.9911579},"location_type":"APPROXIMATE","viewport":{"northeast":{"lat":44.8900211802915,"lng":11.9927848302915},"southwest":{"lat":44.8873232197085,"lng":11.9900868697085}}},"place_id":"ChIJI0Q4_bNmfkcR1z-WhIPtv08","types":["locality","political"]}],"status":"OK"},{"results":[{"address_components":[{"long_name":"Eugene","short_name":"Eugene","types":["locality","political"]},{"long_name":"Lane County","short_name":"Lane County","types":["administrative_area_level_2","political"]},{"long_name":"Oregon","short_name":"OR","types":["administrative_area_level_1","political"]},{"long_name":"United States","short_name":"US","types":["country","political"]}],"formatted_address":"Eugene, OR, USA","geometry":{"bounds":{"northeast":{"lat":44.13261989999999,"lng":-123.0366989},"southwest":{"lat":43.9887109,"lng":-123.208402}},"location":{"lat":44.0520691,"lng":-123.0867536},"location_type":"APPROXIMATE","viewport":{"northeast":{"lat":44.13261989999999,"lng":-123.0366989},